[
  {
    "stoppoint_loid": 530,
    "prev_sp_loid": 529,
    "total": 340,
    "delayed": 53,
    "not_delayed": 287,
    "avg_delay": 233.2075471698113208,
    "max": 604,
    "min": 35,
    "delay_rate": 15.588235294117647,
    "latitude": 53.239542,
    "longitude": 23.168910,
    "name": "Wólka Przedmieście",
    "prev_latitude": 53.234343,
    "prev_longitude": 23.150058,
    "prev_name": "Katrynka"
  },
  {
    "stoppoint_loid": 647,
    "prev_sp_loid": 205,
    "total": 570,
    "delayed": 86,
    "not_delayed": 484,
    "avg_delay": 293.2906976744186047,
    "max": 4099,
    "min": 71,
    "delay_rate": 15.087719298245613,
    "latitude": 53.084285,
    "longitude": 23.133433,
    "name": "Śródlesie",
    "prev_latitude": 53.099092,
    "prev_longitude": 23.130855,
    "prev_name": "Wiadukt/PKP Stadion"
  },
  {
    "stoppoint_loid": 202,
    "prev_sp_loid": 201,
    "total": 1466,
    "delayed": 207,
    "not_delayed": 1259,
    "avg_delay": 157.3913043478260870,
    "max": 4070,
    "min": 32,
    "delay_rate": 14.120054570259208,
    "latitude": 53.088015,
    "longitude": 23.210493,
    "name": "Dojlidy Górne/Brzoskwiniowa",
    "prev_latitude": 53.082878,
    "prev_longitude": 23.209370,
    "prev_name": "Dojlidy Górne/Cytrynowa"
  },
  {
    "stoppoint_loid": 514,
    "prev_sp_loid": 513,
    "total": 3873,
    "delayed": 533,
    "not_delayed": 3340,
    "avg_delay": 310.7392120075046904,
    "max": 4860,
    "min": 32,
    "delay_rate": 13.761941647301834,
    "latitude": 53.138533,
    "longitude": 23.198649,
    "name": "Piastowska/Kazimierza Wielkiego",
    "prev_latitude": 53.143380,
    "prev_longitude": 23.201660,
    "prev_name": "Kazimierza Wielkiego/42. Pułku Piechoty"
  },
  {
    "stoppoint_loid": 899,
    "prev_sp_loid": 356,
    "total": 3990,
    "delayed": 545,
    "not_delayed": 3445,
    "avg_delay": 186.1577981651376147,
    "max": 4646,
    "min": 33,
    "delay_rate": 13.659147869674184,
    "latitude": 53.151448,
    "longitude": 23.082572,
    "name": "Pieleckiego/Pietkiewicza",
    "prev_latitude": 53.148130,
    "prev_longitude": 23.088542,
    "prev_name": "Herberta/Pętla"
  },
  {
    "stoppoint_loid": 780,
    "prev_sp_loid": 900,
    "total": 3977,
    "delayed": 543,
    "not_delayed": 3434,
    "avg_delay": 182.9834254143646409,
    "max": 4526,
    "min": 31,
    "delay_rate": 13.653507669097309,
    "latitude": 53.153853,
    "longitude": 23.088193,
    "name": "Kołłątaja",
    "prev_latitude": 53.152368,
    "prev_longitude": 23.086463,
    "prev_name": "Pileckiego/Bacieczki TBS"
  },
  {
    "stoppoint_loid": 900,
    "prev_sp_loid": 899,
    "total": 3982,
    "delayed": 541,
    "not_delayed": 3441,
    "avg_delay": 170.6432532347504621,
    "max": 4586,
    "min": 32,
    "delay_rate": 13.58613761928679,
    "latitude": 53.152368,
    "longitude": 23.086463,
    "name": "Pileckiego/Bacieczki TBS",
    "prev_latitude": 53.151448,
    "prev_longitude": 23.082572,
    "prev_name": "Pieleckiego/Pietkiewicza"
  },
  {
    "stoppoint_loid": 115,
    "prev_sp_loid": 163,
    "total": 3964,
    "delayed": 538,
    "not_delayed": 3426,
    "avg_delay": 296.2416356877323420,
    "max": 4594,
    "min": 31,
    "delay_rate": 13.57214934409687,
    "latitude": 53.145400,
    "longitude": 23.183640,
    "name": "Sosabowskiego / Wasilkowska",
    "prev_latitude": 53.144083,
    "prev_longitude": 23.189198,
    "prev_name": "Sosabowskiego / Krańcowa"
  },
  {
    "stoppoint_loid": 201,
    "prev_sp_loid": 200,
    "total": 1458,
    "delayed": 196,
    "not_delayed": 1262,
    "avg_delay": 155.8163265306122449,
    "max": 4130,
    "min": 31,
    "delay_rate": 13.443072702331962,
    "latitude": 53.082878,
    "longitude": 23.209370,
    "name": "Dojlidy Górne/Cytrynowa",
    "prev_latitude": 53.079133,
    "prev_longitude": 23.211317,
    "prev_name": "Dojlidy Górne/Kameliowa"
  },
  {
    "stoppoint_loid": 628,
    "prev_sp_loid": 627,
    "total": 5990,
    "delayed": 805,
    "not_delayed": 5185,
    "avg_delay": 205.3751552795031056,
    "max": 5069,
    "min": 31,
    "delay_rate": 13.439065108514189,
    "latitude": 53.139395,
    "longitude": 23.108677,
    "name": "al.Jana Pawła II/Rzeka Biała",
    "prev_latitude": 53.142227,
    "prev_longitude": 23.109205,
    "prev_name": "Konst.3 Maja/Swobodna"
  },
  {
    "stoppoint_loid": 200,
    "prev_sp_loid": 199,
    "total": 1461,
    "delayed": 195,
    "not_delayed": 1266,
    "avg_delay": 162.2871794871794872,
    "max": 4190,
    "min": 31,
    "delay_rate": 13.347022587268995,
    "latitude": 53.079133,
    "longitude": 23.211317,
    "name": "Dojlidy Górne/Kameliowa",
    "prev_latitude": 53.076765,
    "prev_longitude": 23.217495,
    "prev_name": "Halicka/Lubczykowa"
  },
  {
    "stoppoint_loid": 582,
    "prev_sp_loid": 581,
    "total": 338,
    "delayed": 45,
    "not_delayed": 293,
    "avg_delay": 375.3555555555555556,
    "max": 1200,
    "min": 178,
    "delay_rate": 13.313609467455622,
    "latitude": 52.982635,
    "longitude": 23.179342,
    "name": "Klewinowo Nowe",
    "prev_latitude": 52.980355,
    "prev_longitude": 23.189040,
    "prev_name": "Klewinowo/Pętla"
  },
  {
    "stoppoint_loid": 624,
    "prev_sp_loid": 356,
    "total": 9866,
    "delayed": 1311,
    "not_delayed": 8555,
    "avg_delay": 142.7467581998474447,
    "max": 4747,
    "min": 31,
    "delay_rate": 13.288060004054328,
    "latitude": 53.150112,
    "longitude": 23.083765,
    "name": "K.E.N./Pietkiewicza",
    "prev_latitude": 53.148130,
    "prev_longitude": 23.088542,
    "prev_name": "Herberta/Pętla"
  },
  {
    "stoppoint_loid": 8,
    "prev_sp_loid": 58,
    "total": 837,
    "delayed": 111,
    "not_delayed": 726,
    "avg_delay": 119.0270270270270270,
    "max": 2151,
    "min": 31,
    "delay_rate": 13.261648745519713,
    "latitude": 53.132317,
    "longitude": 23.087395,
    "name": "Armii Krajowej/Pętla",
    "prev_latitude": 53.131827,
    "prev_longitude": 23.084128,
    "prev_name": "Boboli"
  },
  {
    "stoppoint_loid": 496,
    "prev_sp_loid": 495,
    "total": 3817,
    "delayed": 504,
    "not_delayed": 3313,
    "avg_delay": 430.9126984126984127,
    "max": 5334,
    "min": 32,
    "delay_rate": 13.204086979303117,
    "latitude": 53.119915,
    "longitude": 23.172968,
    "name": "Św.Pio / Podleśna",
    "prev_latitude": 53.121630,
    "prev_longitude": 23.178515,
    "prev_name": "Atrium Biała"
  },
  {
    "stoppoint_loid": 901,
    "prev_sp_loid": 780,
    "total": 3956,
    "delayed": 521,
    "not_delayed": 3435,
    "avg_delay": 200.3474088291746641,
    "max": 4496,
    "min": 31,
    "delay_rate": 13.169868554095046,
    "latitude": 53.155997,
    "longitude": 23.088194,
    "name": "Kleeberga / Wróblewskiego",
    "prev_latitude": 53.153853,
    "prev_longitude": 23.088193,
    "prev_name": "Kołłątaja"
  },
  {
    "stoppoint_loid": 161,
    "prev_sp_loid": 160,
    "total": 7350,
    "delayed": 958,
    "not_delayed": 6392,
    "avg_delay": 230.1805845511482255,
    "max": 4943,
    "min": 31,
    "delay_rate": 13.034013605442176,
    "latitude": 53.144288,
    "longitude": 23.200600,
    "name": "42. Pułku Piechoty / Chabrowa",
    "prev_latitude": 53.148107,
    "prev_longitude": 23.201523,
    "prev_name": "Kazimierza Wielkiego/Chełmońskiego"
  },
  {
    "stoppoint_loid": 626,
    "prev_sp_loid": 625,
    "total": 9832,
    "delayed": 1265,
    "not_delayed": 8567,
    "avg_delay": 141.3549407114624506,
    "max": 4731,
    "min": 31,
    "delay_rate": 12.866151342554923,
    "latitude": 53.150545,
    "longitude": 23.089708,
    "name": "Kołłątaja/Mackiewicza",
    "prev_latitude": 53.150693,
    "prev_longitude": 23.086915,
    "prev_name": "K.E.N./Pietkuna"
  },
  {
    "stoppoint_loid": 525,
    "prev_sp_loid": 524,
    "total": 1937,
    "delayed": 249,
    "not_delayed": 1688,
    "avg_delay": 395.2409638554216867,
    "max": 3950,
    "min": 43,
    "delay_rate": 12.854930304594733,
    "latitude": 53.175713,
    "longitude": 23.147290,
    "name": "Tysiąclecia P.P./Zajazd",
    "prev_latitude": 53.167412,
    "prev_longitude": 23.148317,
    "prev_name": "Tysiąclecia P.P./Wodociągi Nadleśnictwo"
  },
  {
    "stoppoint_loid": 908,
    "prev_sp_loid": 912,
    "total": 1206,
    "delayed": 155,
    "not_delayed": 1051,
    "avg_delay": 137.5032258064516129,
    "max": 4499,
    "min": 32,
    "delay_rate": 12.85240464344942,
    "latitude": 53.212310,
    "longitude": 23.212638,
    "name": "Wasilków",
    "prev_latitude": 53.220417,
    "prev_longitude": 23.219982,
    "prev_name": "Święta Woda"
  },
  {
    "stoppoint_loid": 490,
    "prev_sp_loid": 576,
    "total": 5820,
    "delayed": 748,
    "not_delayed": 5072,
    "avg_delay": 170.9451871657754011,
    "max": 1684,
    "min": 31,
    "delay_rate": 12.852233676975944,
    "latitude": 53.197255,
    "longitude": 23.198645,
    "name": "Wasilków / Jurowiecka",
    "prev_latitude": 53.198882,
    "prev_longitude": 23.207695,
    "prev_name": "Wasilków PKS"
  },
  {
    "stoppoint_loid": 577,
    "prev_sp_loid": 490,
    "total": 5814,
    "delayed": 747,
    "not_delayed": 5067,
    "avg_delay": 173.5274431057563588,
    "max": 1720,
    "min": 31,
    "delay_rate": 12.848297213622292,
    "latitude": 53.194457,
    "longitude": 23.194793,
    "name": "Wasilków/Plaża",
    "prev_latitude": 53.197255,
    "prev_longitude": 23.198645,
    "prev_name": "Wasilków / Jurowiecka"
  },
  {
    "stoppoint_loid": 333,
    "prev_sp_loid": 33,
    "total": 3382,
    "delayed": 434,
    "not_delayed": 2948,
    "avg_delay": 104.5875576036866359,
    "max": 2686,
    "min": 31,
    "delay_rate": 12.83264340626848,
    "latitude": 53.148087,
    "longitude": 23.163697,
    "name": "1 Armii W.P./Kombatantów",
    "prev_latitude": 53.152870,
    "prev_longitude": 23.166323,
    "prev_name": "Elektrociepłownia"
  },
  {
    "stoppoint_loid": 910,
    "prev_sp_loid": 563,
    "total": 5760,
    "delayed": 736,
    "not_delayed": 5024,
    "avg_delay": 195.8940217391304348,
    "max": 5375,
    "min": 32,
    "delay_rate": 12.777777777777777,
    "latitude": 53.167433,
    "longitude": 23.187145,
    "name": "Wysockiego / Krzywoustego",
    "prev_latitude": 53.172195,
    "prev_longitude": 23.186598,
    "prev_name": "Wysockiego - Silikaty"
  },
  {
    "stoppoint_loid": 531,
    "prev_sp_loid": 530,
    "total": 329,
    "delayed": 42,
    "not_delayed": 287,
    "avg_delay": 191.9285714285714286,
    "max": 523,
    "min": 45,
    "delay_rate": 12.76595744680851,
    "latitude": 53.235513,
    "longitude": 23.171967,
    "name": "Wólka Poduchowna",
    "prev_latitude": 53.239542,
    "prev_longitude": 23.168910,
    "prev_name": "Wólka Przedmieście"
  },
  {
    "stoppoint_loid": 578,
    "prev_sp_loid": 577,
    "total": 5802,
    "delayed": 735,
    "not_delayed": 5067,
    "avg_delay": 173.5836734693877551,
    "max": 4255,
    "min": 31,
    "delay_rate": 12.66804550155119,
    "latitude": 53.185322,
    "longitude": 23.188982,
    "name": "Wasilków/Ogródki Działkowe",
    "prev_latitude": 53.194457,
    "prev_longitude": 23.194793,
    "prev_name": "Wasilków/Plaża"
  },
  {
    "stoppoint_loid": 625,
    "prev_sp_loid": 624,
    "total": 9816,
    "delayed": 1242,
    "not_delayed": 8574,
    "avg_delay": 132.1014492753623188,
    "max": 4732,
    "min": 31,
    "delay_rate": 12.652811735941318,
    "latitude": 53.150693,
    "longitude": 23.086915,
    "name": "K.E.N./Pietkuna",
    "prev_latitude": 53.150112,
    "prev_longitude": 23.083765,
    "prev_name": "K.E.N./Pietkiewicza"
  },
  {
    "stoppoint_loid": 581,
    "prev_sp_loid": 580,
    "total": 332,
    "delayed": 42,
    "not_delayed": 290,
    "avg_delay": 515.2857142857142857,
    "max": 2770,
    "min": 32,
    "delay_rate": 12.650602409638553,
    "latitude": 52.980355,
    "longitude": 23.189040,
    "name": "Klewinowo/Pętla",
    "prev_latitude": 52.981918,
    "prev_longitude": 23.147648,
    "prev_name": "Biele"
  },
  {
    "stoppoint_loid": 328,
    "prev_sp_loid": 475,
    "total": 9228,
    "delayed": 1166,
    "not_delayed": 8062,
    "avg_delay": 328.9468267581475129,
    "max": 5378,
    "min": 31,
    "delay_rate": 12.635457303857825,
    "latitude": 53.121253,
    "longitude": 23.146957,
    "name": "Kaczorowskiego / Zwierzyniecka",
    "prev_latitude": 53.122345,
    "prev_longitude": 23.143220,
    "prev_name": "Kopernika/Os. Bema"
  },
  {
    "stoppoint_loid": 598,
    "prev_sp_loid": 45,
    "total": 9030,
    "delayed": 1138,
    "not_delayed": 7892,
    "avg_delay": 350.8260105448154657,
    "max": 5386,
    "min": 31,
    "delay_rate": 12.602436323366556,
    "latitude": 53.130842,
    "longitude": 23.154880,
    "name": "Plac Uniwersytecki",
    "prev_latitude": 53.133190,
    "prev_longitude": 23.155845,
    "prev_name": "Malmeda/Lipowa"
  },
  {
    "stoppoint_loid": 513,
    "prev_sp_loid": 160,
    "total": 3838,
    "delayed": 482,
    "not_delayed": 3356,
    "avg_delay": 263.2261410788381743,
    "max": 4831,
    "min": 31,
    "delay_rate": 12.55862428348098,
    "latitude": 53.143380,
    "longitude": 23.201660,
    "name": "Kazimierza Wielkiego/42. Pułku Piechoty",
    "prev_latitude": 53.148107,
    "prev_longitude": 23.201523,
    "prev_name": "Kazimierza Wielkiego/Chełmońskiego"
  },
  {
    "stoppoint_loid": 160,
    "prev_sp_loid": 398,
    "total": 7311,
    "delayed": 917,
    "not_delayed": 6394,
    "avg_delay": 219.8222464558342421,
    "max": 4954,
    "min": 31,
    "delay_rate": 12.54274381069621,
    "latitude": 53.148107,
    "longitude": 23.201523,
    "name": "Kazimierza Wielkiego/Chełmońskiego",
    "prev_latitude": 53.148285,
    "prev_longitude": 23.205640,
    "prev_name": "Chełmońskiego/Leńskiego"
  },
  {
    "stoppoint_loid": 909,
    "prev_sp_loid": 908,
    "total": 5751,
    "delayed": 720,
    "not_delayed": 5031,
    "avg_delay": 159.0597222222222222,
    "max": 4513,
    "min": 31,
    "delay_rate": 12.519561815336463,
    "latitude": 53.205115,
    "longitude": 23.207135,
    "name": "Wasilków / Polna",
    "prev_latitude": 53.212310,
    "prev_longitude": 23.212638,
    "prev_name": "Wasilków"
  },
  {
    "stoppoint_loid": 474,
    "prev_sp_loid": 51,
    "total": 8323,
    "delayed": 1040,
    "not_delayed": 7283,
    "avg_delay": 363.0278846153846154,
    "max": 5351,
    "min": 31,
    "delay_rate": 12.49549441307221,
    "latitude": 53.124742,
    "longitude": 23.138667,
    "name": "Kopernika/Wop",
    "prev_latitude": 53.128602,
    "prev_longitude": 23.136442,
    "prev_name": "B.M.Cassino/Sosnowa"
  },
  {
    "stoppoint_loid": 701,
    "prev_sp_loid": 700,
    "total": 2343,
    "delayed": 291,
    "not_delayed": 2052,
    "avg_delay": 151.0378006872852234,
    "max": 1001,
    "min": 31,
    "delay_rate": 12.419974391805377,
    "latitude": 53.112850,
    "longitude": 23.268550,
    "name": "Sobolewo/Szkoła",
    "prev_latitude": 53.106530,
    "prev_longitude": 23.270165,
    "prev_name": "Sobolewo/Pętla"
  },
  {
    "stoppoint_loid": 563,
    "prev_sp_loid": 891,
    "total": 5778,
    "delayed": 714,
    "not_delayed": 5064,
    "avg_delay": 162.0196078431372549,
    "max": 4075,
    "min": 31,
    "delay_rate": 12.357217030114226,
    "latitude": 53.172195,
    "longitude": 23.186598,
    "name": "Wysockiego - Silikaty",
    "prev_latitude": 53.182351,
    "prev_longitude": 23.187537,
    "prev_name": "Wasilków / Cisowa"
  },
  {
    "stoppoint_loid": 165,
    "prev_sp_loid": 897,
    "total": 3895,
    "delayed": 481,
    "not_delayed": 3414,
    "avg_delay": 291.7110187110187110,
    "max": 5237,
    "min": 31,
    "delay_rate": 12.349165596919127,
    "latitude": 53.140677,
    "longitude": 23.173008,
    "name": "Sienkiewicza/Ryska",
    "prev_latitude": 53.143208,
    "prev_longitude": 23.179528,
    "prev_name": "Traugutta / Wasilkowska"
  },
  {
    "stoppoint_loid": 110,
    "prev_sp_loid": 109,
    "total": 26987,
    "delayed": 3328,
    "not_delayed": 23659,
    "avg_delay": 323.1760817307692308,
    "max": 5340,
    "min": 31,
    "delay_rate": 12.331863489828436,
    "latitude": 53.128918,
    "longitude": 23.155380,
    "name": "Legionowa/Szkoła",
    "prev_latitude": 53.126500,
    "prev_longitude": 23.150717,
    "prev_name": "Kaczorowskiego / OiFP"
  },
  {
    "stoppoint_loid": 162,
    "prev_sp_loid": 161,
    "total": 10389,
    "delayed": 1281,
    "not_delayed": 9108,
    "avg_delay": 236.1491022638563622,
    "max": 5347,
    "min": 31,
    "delay_rate": 12.330349408027722,
    "latitude": 53.144308,
    "longitude": 23.194377,
    "name": "42. Pułku Piechoty / Robotnicza",
    "prev_latitude": 53.144288,
    "prev_longitude": 23.200600,
    "prev_name": "42. Pułku Piechoty / Chabrowa"
  },
  {
    "stoppoint_loid": 891,
    "prev_sp_loid": 578,
    "total": 5776,
    "delayed": 711,
    "not_delayed": 5065,
    "avg_delay": 146.1603375527426160,
    "max": 4195,
    "min": 31,
    "delay_rate": 12.309556786703602,
    "latitude": 53.182351,
    "longitude": 23.187537,
    "name": "Wasilków / Cisowa",
    "prev_latitude": 53.185322,
    "prev_longitude": 23.188982,
    "prev_name": "Wasilków/Ogródki Działkowe"
  },
  {
    "stoppoint_loid": 764,
    "prev_sp_loid": 901,
    "total": 3909,
    "delayed": 481,
    "not_delayed": 3428,
    "avg_delay": 200.0706860706860707,
    "max": 4376,
    "min": 31,
    "delay_rate": 12.304937324123816,
    "latitude": 53.157923,
    "longitude": 23.098288,
    "name": "Produkcyjna/Kleeberga",
    "prev_latitude": 53.155997,
    "prev_longitude": 23.088194,
    "prev_name": "Kleeberga / Wróblewskiego"
  },
  {
    "stoppoint_loid": 45,
    "prev_sp_loid": 44,
    "total": 35420,
    "delayed": 4358,
    "not_delayed": 31062,
    "avg_delay": 333.5371730151445617,
    "max": 5388,
    "min": 31,
    "delay_rate": 12.303783173348391,
    "latitude": 53.133190,
    "longitude": 23.155845,
    "name": "Malmeda/Lipowa",
    "prev_latitude": 53.133908,
    "prev_longitude": 23.161843,
    "prev_name": "Sienkiewicza / Białówny"
  },
  {
    "stoppoint_loid": 108,
    "prev_sp_loid": 328,
    "total": 26974,
    "delayed": 3316,
    "not_delayed": 23658,
    "avg_delay": 324.1619420989143546,
    "max": 5390,
    "min": 31,
    "delay_rate": 12.293319492844962,
    "latitude": 53.124565,
    "longitude": 23.149197,
    "name": "Kaczorowskiego / Waszyngtona",
    "prev_latitude": 53.121253,
    "prev_longitude": 23.146957,
    "prev_name": "Kaczorowskiego / Zwierzyniecka"
  },
  {
    "stoppoint_loid": 103,
    "prev_sp_loid": 242,
    "total": 5117,
    "delayed": 629,
    "not_delayed": 4488,
    "avg_delay": 305.0922098569157393,
    "max": 5166,
    "min": 32,
    "delay_rate": 12.29235880398671,
    "latitude": 53.125960,
    "longitude": 23.181325,
    "name": "Branickiego / Piastowska",
    "prev_latitude": 53.128878,
    "prev_longitude": 23.187967,
    "prev_name": "Piastowska/Chrobrego"
  },
  {
    "stoppoint_loid": 911,
    "prev_sp_loid": 910,
    "total": 5729,
    "delayed": 704,
    "not_delayed": 5025,
    "avg_delay": 175.9602272727272727,
    "max": 5392,
    "min": 31,
    "delay_rate": 12.288357479490312,
    "latitude": 53.162712,
    "longitude": 23.186063,
    "name": "Wysockiego - Outlet Białystok",
    "prev_latitude": 53.167433,
    "prev_longitude": 23.187145,
    "prev_name": "Wysockiego / Krzywoustego"
  },
  {
    "stoppoint_loid": 380,
    "prev_sp_loid": 274,
    "total": 7479,
    "delayed": 919,
    "not_delayed": 6560,
    "avg_delay": 344.2045701849836779,
    "max": 5384,
    "min": 31,
    "delay_rate": 12.287739002540446,
    "latitude": 53.129043,
    "longitude": 23.098113,
    "name": "Sikorskiego / Bat. Chł.",
    "prev_latitude": 53.132185,
    "prev_longitude": 23.101232,
    "prev_name": "Witosa/Przychodnia"
  },
  {
    "stoppoint_loid": 629,
    "prev_sp_loid": 628,
    "total": 15671,
    "delayed": 1925,
    "not_delayed": 13746,
    "avg_delay": 250.0171428571428571,
    "max": 5364,
    "min": 31,
    "delay_rate": 12.283836385680557,
    "latitude": 53.137958,
    "longitude": 23.117022,
    "name": "al.Jana Pawła II/Centrum Handlowe",
    "prev_latitude": 53.139395,
    "prev_longitude": 23.108677,
    "prev_name": "al.Jana Pawła II/Rzeka Biała"
  },
  {
    "stoppoint_loid": 896,
    "prev_sp_loid": 895,
    "total": 3893,
    "delayed": 478,
    "not_delayed": 3415,
    "avg_delay": 292.2761506276150628,
    "max": 4535,
    "min": 31,
    "delay_rate": 12.278448497302852,
    "latitude": 53.141685,
    "longitude": 23.183488,
    "name": "Traugutta/Ciasna",
    "prev_latitude": 53.142557,
    "prev_longitude": 23.185940,
    "prev_name": "Kapralska/Pionerska"
  },
  {
    "stoppoint_loid": 524,
    "prev_sp_loid": 29,
    "total": 1931,
    "delayed": 237,
    "not_delayed": 1694,
    "avg_delay": 375.8312236286919831,
    "max": 4010,
    "min": 31,
    "delay_rate": 12.273433454168824,
    "latitude": 53.167412,
    "longitude": 23.148317,
    "name": "Tysiąclecia P.P./Wodociągi Nadleśnictwo",
    "prev_latitude": 53.156128,
    "prev_longitude": 23.151885,
    "prev_name": "Tysiąclecia P.P./St.Paliw"
  },
  {
    "stoppoint_loid": 521,
    "prev_sp_loid": 520,
    "total": 16633,
    "delayed": 2041,
    "not_delayed": 14592,
    "avg_delay": 186.6222439980401764,
    "max": 5343,
    "min": 31,
    "delay_rate": 12.270786989719234,
    "latitude": 53.153162,
    "longitude": 23.121973,
    "name": "Gajowa/Zagórna",
    "prev_latitude": 53.155270,
    "prev_longitude": 23.115487,
    "prev_name": "Gajowa/Pętla"
  },
  {
    "stoppoint_loid": 895,
    "prev_sp_loid": 115,
    "total": 3897,
    "delayed": 478,
    "not_delayed": 3419,
    "avg_delay": 272.5020920502092050,
    "max": 4474,
    "min": 31,
    "delay_rate": 12.26584552219656,
    "latitude": 53.142557,
    "longitude": 23.185940,
    "name": "Kapralska/Pionerska",
    "prev_latitude": 53.145400,
    "prev_longitude": 23.183640,
    "prev_name": "Sosabowskiego / Wasilkowska"
  },
  {
    "stoppoint_loid": 240,
    "prev_sp_loid": 514,
    "total": 3809,
    "delayed": 466,
    "not_delayed": 3343,
    "avg_delay": 337.6566523605150215,
    "max": 5245,
    "min": 31,
    "delay_rate": 12.234182200052507,
    "latitude": 53.134870,
    "longitude": 23.195380,
    "name": "Piastowska/Os. Piasta",
    "prev_latitude": 53.138533,
    "prev_longitude": 23.198649,
    "prev_name": "Piastowska/Kazimierza Wielkiego"
  },
  {
    "stoppoint_loid": 526,
    "prev_sp_loid": 525,
    "total": 1916,
    "delayed": 234,
    "not_delayed": 1682,
    "avg_delay": 362.6837606837606838,
    "max": 3830,
    "min": 31,
    "delay_rate": 12.21294363256785,
    "latitude": 53.178848,
    "longitude": 23.147730,
    "name": "Muzeum Wsi",
    "prev_latitude": 53.175713,
    "prev_longitude": 23.147290,
    "prev_name": "Tysiąclecia P.P./Zajazd"
  },
  {
    "stoppoint_loid": 693,
    "prev_sp_loid": 692,
    "total": 2331,
    "delayed": 284,
    "not_delayed": 2047,
    "avg_delay": 267.3873239436619718,
    "max": 1748,
    "min": 32,
    "delay_rate": 12.183612183612183,
    "latitude": 53.129402,
    "longitude": 23.224612,
    "name": "Ciołkowskiego/Gen.N.Sulika",
    "prev_latitude": 53.126748,
    "prev_longitude": 23.216552,
    "prev_name": "Ciołkowskiego/Plażowa"
  },
  {
    "stoppoint_loid": 206,
    "prev_sp_loid": 670,
    "total": 485,
    "delayed": 59,
    "not_delayed": 426,
    "avg_delay": 250.7966101694915254,
    "max": 4006,
    "min": 32,
    "delay_rate": 12.164948453608247,
    "latitude": 53.099897,
    "longitude": 23.133977,
    "name": "Wiadukt/Kościół",
    "prev_latitude": 53.083803,
    "prev_longitude": 23.133567,
    "prev_name": "Śródlesie"
  },
  {
    "stoppoint_loid": 791,
    "prev_sp_loid": 790,
    "total": 2098,
    "delayed": 255,
    "not_delayed": 1843,
    "avg_delay": 217.2274509803921569,
    "max": 5349,
    "min": 31,
    "delay_rate": 12.154432793136321,
    "latitude": 53.158563,
    "longitude": 23.076898,
    "name": "Przędzalniana/Szosa Ełcka  ",
    "prev_latitude": 53.161048,
    "prev_longitude": 23.069802,
    "prev_name": "Fasty/Giełda rolno-spożywcza"
  },
  {
    "stoppoint_loid": 241,
    "prev_sp_loid": 240,
    "total": 16796,
    "delayed": 2035,
    "not_delayed": 14761,
    "avg_delay": 280.5562653562653563,
    "max": 5349,
    "min": 31,
    "delay_rate": 12.11597999523696,
    "latitude": 53.131972,
    "longitude": 23.192502,
    "name": "Piastowska/Mieszka I",
    "prev_latitude": 53.134870,
    "prev_longitude": 23.195380,
    "prev_name": "Piastowska/Os. Piasta"
  },
  {
    "stoppoint_loid": 36,
    "prev_sp_loid": 542,
    "total": 1916,
    "delayed": 232,
    "not_delayed": 1684,
    "avg_delay": 218.0431034482758621,
    "max": 5151,
    "min": 32,
    "delay_rate": 12.10855949895616,
    "latitude": 53.157558,
    "longitude": 23.151460,
    "name": "Tysiąclecia P.P./St.Paliw",
    "prev_latitude": 53.166408,
    "prev_longitude": 23.148295,
    "prev_name": "Tysiąclecia P.P./Wodociągi Nadleśnictwo"
  },
  {
    "stoppoint_loid": 109,
    "prev_sp_loid": 108,
    "total": 26926,
    "delayed": 3257,
    "not_delayed": 23669,
    "avg_delay": 314.4841879029782008,
    "max": 5349,
    "min": 31,
    "delay_rate": 12.096115278912576,
    "latitude": 53.126500,
    "longitude": 23.150717,
    "name": "Kaczorowskiego / OiFP",
    "prev_latitude": 53.124565,
    "prev_longitude": 23.149197,
    "prev_name": "Kaczorowskiego / Waszyngtona"
  },
  {
    "stoppoint_loid": 897,
    "prev_sp_loid": 896,
    "total": 3880,
    "delayed": 467,
    "not_delayed": 3413,
    "avg_delay": 295.7537473233404711,
    "max": 5297,
    "min": 31,
    "delay_rate": 12.036082474226804,
    "latitude": 53.143208,
    "longitude": 23.179528,
    "name": "Traugutta / Wasilkowska",
    "prev_latitude": 53.141685,
    "prev_longitude": 23.183488,
    "prev_name": "Traugutta/Ciasna"
  },
  {
    "stoppoint_loid": 105,
    "prev_sp_loid": 104,
    "total": 31269,
    "delayed": 3758,
    "not_delayed": 27511,
    "avg_delay": 276.1689728579031400,
    "max": 5393,
    "min": 31,
    "delay_rate": 12.018292877930218,
    "latitude": 53.131453,
    "longitude": 23.169838,
    "name": "Branickiego / Urząd Miejski",
    "prev_latitude": 53.128070,
    "prev_longitude": 23.175038,
    "prev_name": "Branickiego / Automobilklub"
  },
  {
    "stoppoint_loid": 495,
    "prev_sp_loid": 494,
    "total": 9572,
    "delayed": 1149,
    "not_delayed": 8423,
    "avg_delay": 298.4847693646649260,
    "max": 5394,
    "min": 31,
    "delay_rate": 12.003760969494358,
    "latitude": 53.121630,
    "longitude": 23.178515,
    "name": "Atrium Biała",
    "prev_latitude": 53.124442,
    "prev_longitude": 23.181220,
    "prev_name": "Miłosza/Branickiego"
  },
  {
    "stoppoint_loid": 534,
    "prev_sp_loid": 533,
    "total": 325,
    "delayed": 39,
    "not_delayed": 286,
    "avg_delay": 365.3076923076923077,
    "max": 5162,
    "min": 35,
    "delay_rate": 12.0,
    "latitude": 53.213215,
    "longitude": 23.171985,
    "name": "Sochonie/Pętla",
    "prev_latitude": 53.222347,
    "prev_longitude": 23.166850,
    "prev_name": "Woroszyły 2"
  },
  {
    "stoppoint_loid": 673,
    "prev_sp_loid": 672,
    "total": 542,
    "delayed": 65,
    "not_delayed": 477,
    "avg_delay": 242.6153846153846154,
    "max": 3795,
    "min": 40,
    "delay_rate": 11.992619926199263,
    "latitude": 52.999222,
    "longitude": 23.151463,
    "name": "Wólka",
    "prev_latitude": 52.982028,
    "prev_longitude": 23.147650,
    "prev_name": "Juchnowiec D./Wólka"
  },
  {
    "stoppoint_loid": 576,
    "prev_sp_loid": 909,
    "total": 5754,
    "delayed": 690,
    "not_delayed": 5064,
    "avg_delay": 119.4275362318840580,
    "max": 1669,
    "min": 31,
    "delay_rate": 11.991657977059438,
    "latitude": 53.198882,
    "longitude": 23.207695,
    "name": "Wasilków PKS",
    "prev_latitude": 53.205115,
    "prev_longitude": 23.207135,
    "prev_name": "Wasilków / Polna"
  },
  {
    "stoppoint_loid": 672,
    "prev_sp_loid": 583,
    "total": 543,
    "delayed": 65,
    "not_delayed": 478,
    "avg_delay": 262.5230769230769231,
    "max": 3658,
    "min": 42,
    "delay_rate": 11.970534069981584,
    "latitude": 52.982028,
    "longitude": 23.147650,
    "name": "Juchnowiec D./Wólka",
    "prev_latitude": 52.968927,
    "prev_longitude": 23.130120,
    "prev_name": "Rostołty"
  },
  {
    "stoppoint_loid": 790,
    "prev_sp_loid": 789,
    "total": 2091,
    "delayed": 250,
    "not_delayed": 1841,
    "avg_delay": 224.5520000000000000,
    "max": 5244,
    "min": 31,
    "delay_rate": 11.956001912960305,
    "latitude": 53.161048,
    "longitude": 23.069802,
    "name": "Fasty/Giełda rolno-spożywcza",
    "prev_latitude": 53.168023,
    "prev_longitude": 23.060693,
    "prev_name": "Fasty/Przystanek PKS"
  },
  {
    "stoppoint_loid": 199,
    "prev_sp_loid": 198,
    "total": 1447,
    "delayed": 173,
    "not_delayed": 1274,
    "avg_delay": 168.8439306358381503,
    "max": 4250,
    "min": 32,
    "delay_rate": 11.955770559778852,
    "latitude": 53.076765,
    "longitude": 23.217495,
    "name": "Halicka/Lubczykowa",
    "prev_latitude": 53.075562,
    "prev_longitude": 23.224855,
    "prev_name": "Halicka/Margerytki"
  },
  {
    "stoppoint_loid": 111,
    "prev_sp_loid": 1103,
    "total": 2992,
    "delayed": 357,
    "not_delayed": 2635,
    "avg_delay": 288.3669467787114846,
    "max": 5337,
    "min": 32,
    "delay_rate": 11.931818181818182,
    "latitude": 53.131820,
    "longitude": 23.160740,
    "name": "Rynek Kościuszki",
    "prev_latitude": 53.131953,
    "prev_longitude": 23.165242,
    "prev_name": "Plac Jana Pawła II/Katedra"
  },
  {
    "stoppoint_loid": 819,
    "prev_sp_loid": 818,
    "total": 5910,
    "delayed": 705,
    "not_delayed": 5205,
    "avg_delay": 156.6992907801418440,
    "max": 5384,
    "min": 32,
    "delay_rate": 11.928934010152284,
    "latitude": 53.152383,
    "longitude": 23.190527,
    "name": "Raginisa/Cmentarz Farny",
    "prev_latitude": 53.155505,
    "prev_longitude": 23.194290,
    "prev_name": "Raginisa/Trawiasta"
  },
  {
    "stoppoint_loid": 778,
    "prev_sp_loid": 777,
    "total": 2244,
    "delayed": 267,
    "not_delayed": 1977,
    "avg_delay": 243.6629213483146067,
    "max": 5272,
    "min": 38,
    "delay_rate": 11.898395721925134,
    "latitude": 53.134077,
    "longitude": 23.211425,
    "name": "Włościańska/Sklep",
    "prev_latitude": 53.135542,
    "prev_longitude": 23.219210,
    "prev_name": "Pieczurki/Pętla"
  },
  {
    "stoppoint_loid": 494,
    "prev_sp_loid": 242,
    "total": 3778,
    "delayed": 449,
    "not_delayed": 3329,
    "avg_delay": 409.2160356347438753,
    "max": 5181,
    "min": 31,
    "delay_rate": 11.884595023822127,
    "latitude": 53.124442,
    "longitude": 23.181220,
    "name": "Miłosza/Branickiego",
    "prev_latitude": 53.128878,
    "prev_longitude": 23.187967,
    "prev_name": "Piastowska/Chrobrego"
  },
  {
    "stoppoint_loid": 265,
    "prev_sp_loid": 286,
    "total": 3762,
    "delayed": 447,
    "not_delayed": 3315,
    "avg_delay": 333.1968680089485459,
    "max": 5194,
    "min": 33,
    "delay_rate": 11.881977671451356,
    "latitude": 53.134417,
    "longitude": 23.139365,
    "name": "Poleska/Św.Rocha",
    "prev_latitude": 53.135198,
    "prev_longitude": 23.136212,
    "prev_name": "Dworzec PKP"
  },
  {
    "stoppoint_loid": 105,
    "prev_sp_loid": 488,
    "total": 21102,
    "delayed": 2506,
    "not_delayed": 18596,
    "avg_delay": 301.1975259377494014,
    "max": 5388,
    "min": 31,
    "delay_rate": 11.875651597005023,
    "latitude": 53.131453,
    "longitude": 23.169838,
    "name": "Branickiego / Urząd Miejski",
    "prev_latitude": 53.128405,
    "prev_longitude": 23.169167,
    "prev_name": "Mickiewicza/Urząd Wojewódzki"
  },
  {
    "stoppoint_loid": 703,
    "prev_sp_loid": 702,
    "total": 2310,
    "delayed": 274,
    "not_delayed": 2036,
    "avg_delay": 136.1824817518248175,
    "max": 4203,
    "min": 31,
    "delay_rate": 11.861471861471863,
    "latitude": 53.121575,
    "longitude": 23.261778,
    "name": "Sobolewo/Sokola",
    "prev_latitude": 53.116800,
    "prev_longitude": 23.265433,
    "prev_name": "Sobolewo/Przejazd"
  },
  {
    "stoppoint_loid": 614,
    "prev_sp_loid": 205,
    "total": 2178,
    "delayed": 258,
    "not_delayed": 1920,
    "avg_delay": 183.0232558139534884,
    "max": 4277,
    "min": 31,
    "delay_rate": 11.84573002754821,
    "latitude": 53.103815,
    "longitude": 23.135392,
    "name": "Sławińskiego/Kawaleryjska",
    "prev_latitude": 53.099092,
    "prev_longitude": 23.130855,
    "prev_name": "Wiadukt/PKP Stadion"
  },
  {
    "stoppoint_loid": 247,
    "prev_sp_loid": 233,
    "total": 14581,
    "delayed": 1724,
    "not_delayed": 12857,
    "avg_delay": 335.5400232018561485,
    "max": 5355,
    "min": 31,
    "delay_rate": 11.823606062684314,
    "latitude": 53.136225,
    "longitude": 23.145606,
    "name": "Artyleryjska",
    "prev_latitude": 53.133272,
    "prev_longitude": 23.138598,
    "prev_name": "Dworzec PKS"
  },
  {
    "stoppoint_loid": 441,
    "prev_sp_loid": 361,
    "total": 14817,
    "delayed": 1751,
    "not_delayed": 13066,
    "avg_delay": 252.9760137064534552,
    "max": 5177,
    "min": 31,
    "delay_rate": 11.817506917729634,
    "latitude": 53.147935,
    "longitude": 23.118668,
    "name": "Antoniuk F. / Konstytucji 3 Maja",
    "prev_latitude": 53.145472,
    "prev_longitude": 23.113507,
    "prev_name": "Konst.3 Maja/Studzienna"
  },
  {
    "stoppoint_loid": 842,
    "prev_sp_loid": 841,
    "total": 2666,
    "delayed": 315,
    "not_delayed": 2351,
    "avg_delay": 167.8031746031746032,
    "max": 4908,
    "min": 35,
    "delay_rate": 11.815453863465866,
    "latitude": 53.152292,
    "longitude": 22.985857,
    "name": "Choroszcz - Szpital",
    "prev_latitude": 53.142615,
    "prev_longitude": 22.988507,
    "prev_name": "Choroszcz - Rynek 11 Listopada"
  },
  {
    "stoppoint_loid": 527,
    "prev_sp_loid": 526,
    "total": 1906,
    "delayed": 225,
    "not_delayed": 1681,
    "avg_delay": 360.6800000000000000,
    "max": 3710,
    "min": 32,
    "delay_rate": 11.80482686253935,
    "latitude": 53.190025,
    "longitude": 23.152132,
    "name": "Rzeka Supraśl",
    "prev_latitude": 53.178848,
    "prev_longitude": 23.147730,
    "prev_name": "Muzeum Wsi"
  },
  {
    "stoppoint_loid": 310,
    "prev_sp_loid": 703,
    "total": 2313,
    "delayed": 273,
    "not_delayed": 2040,
    "avg_delay": 146.7728937728937729,
    "max": 4083,
    "min": 32,
    "delay_rate": 11.802853437094681,
    "latitude": 53.126543,
    "longitude": 23.258352,
    "name": "Grabówka/Szosa Baranowicka",
    "prev_latitude": 53.121575,
    "prev_longitude": 23.261778,
    "prev_name": "Sobolewo/Sokola"
  },
  {
    "stoppoint_loid": 429,
    "prev_sp_loid": 428,
    "total": 12295,
    "delayed": 1445,
    "not_delayed": 10850,
    "avg_delay": 167.4207612456747405,
    "max": 5390,
    "min": 31,
    "delay_rate": 11.752745018300121,
    "latitude": 53.115528,
    "longitude": 23.083160,
    "name": "Meksykańska/Watykańska",
    "prev_latitude": 53.112013,
    "prev_longitude": 23.080042,
    "prev_name": "Niewodnicka/Spokojna"
  },
  {
    "stoppoint_loid": 522,
    "prev_sp_loid": 442,
    "total": 3855,
    "delayed": 453,
    "not_delayed": 3402,
    "avg_delay": 302.4547461368653422,
    "max": 4694,
    "min": 31,
    "delay_rate": 11.750972762645914,
    "latitude": 53.143375,
    "longitude": 23.131261,
    "name": "Wierzbowa/Antoniukowska",
    "prev_latitude": 53.145457,
    "prev_longitude": 23.128130,
    "prev_name": "Antoniuk F. / Ogrodniczki"
  },
  {
    "stoppoint_loid": 43,
    "prev_sp_loid": 42,
    "total": 11184,
    "delayed": 1314,
    "not_delayed": 9870,
    "avg_delay": 262.1187214611872146,
    "max": 4874,
    "min": 31,
    "delay_rate": 11.74892703862661,
    "latitude": 53.136335,
    "longitude": 23.163988,
    "name": "Jurowiecka/Sienkiewicza",
    "prev_latitude": 53.140780,
    "prev_longitude": 23.158915,
    "prev_name": "Sklep Łowiecki"
  },
  {
    "stoppoint_loid": 265,
    "prev_sp_loid": 369,
    "total": 8228,
    "delayed": 965,
    "not_delayed": 7263,
    "avg_delay": 359.7616580310880829,
    "max": 5122,
    "min": 31,
    "delay_rate": 11.728245017015071,
    "latitude": 53.134417,
    "longitude": 23.139365,
    "name": "Poleska/Św.Rocha",
    "prev_latitude": 53.140238,
    "prev_longitude": 23.138163,
    "prev_name": "Antoniukowska/Knyszyńska"
  },
  {
    "stoppoint_loid": 163,
    "prev_sp_loid": 162,
    "total": 10302,
    "delayed": 1208,
    "not_delayed": 9094,
    "avg_delay": 227.9561258278145695,
    "max": 5227,
    "min": 31,
    "delay_rate": 11.725878470199962,
    "latitude": 53.144083,
    "longitude": 23.189198,
    "name": "Sosabowskiego / Krańcowa",
    "prev_latitude": 53.144308,
    "prev_longitude": 23.194377,
    "prev_name": "42. Pułku Piechoty / Robotnicza"
  },
  {
    "stoppoint_loid": 88,
    "prev_sp_loid": 87,
    "total": 1827,
    "delayed": 214,
    "not_delayed": 1613,
    "avg_delay": 124.6962616822429907,
    "max": 387,
    "min": 31,
    "delay_rate": 11.713191023535853,
    "latitude": 53.095100,
    "longitude": 23.236222,
    "name": "Zabłudowska/Zagórki",
    "prev_latitude": 53.091340,
    "prev_longitude": 23.242702,
    "prev_name": "Zabłudowska/ Gminna"
  },
  {
    "stoppoint_loid": 361,
    "prev_sp_loid": 360,
    "total": 20394,
    "delayed": 2385,
    "not_delayed": 18009,
    "avg_delay": 253.1656184486373166,
    "max": 5328,
    "min": 31,
    "delay_rate": 11.694616063548102,
    "latitude": 53.145472,
    "longitude": 23.113507,
    "name": "Konst.3 Maja/Studzienna",
    "prev_latitude": 53.143055,
    "prev_longitude": 23.110432,
    "prev_name": "Konst.3 Maja/Rzemieślnicza"
  },
  {
    "stoppoint_loid": 570,
    "prev_sp_loid": 819,
    "total": 5897,
    "delayed": 689,
    "not_delayed": 5208,
    "avg_delay": 160.6734397677793904,
    "max": 5264,
    "min": 31,
    "delay_rate": 11.683907071392232,
    "latitude": 53.149027,
    "longitude": 23.185565,
    "name": "Wasilkowska/Błękitna",
    "prev_latitude": 53.152383,
    "prev_longitude": 23.190527,
    "prev_name": "Raginisa/Cmentarz Farny"
  },
  {
    "stoppoint_loid": 340,
    "prev_sp_loid": 339,
    "total": 32814,
    "delayed": 3824,
    "not_delayed": 28990,
    "avg_delay": 342.1451359832635983,
    "max": 5399,
    "min": 31,
    "delay_rate": 11.653562503809349,
    "latitude": 53.134983,
    "longitude": 23.146577,
    "name": "Plac Niepodległości/Kościół Św.Rocha",
    "prev_latitude": 53.133282,
    "prev_longitude": 23.153040,
    "prev_name": "Lipowa/Nowy Świat"
  },
  {
    "stoppoint_loid": 327,
    "prev_sp_loid": 326,
    "total": 12190,
    "delayed": 1420,
    "not_delayed": 10770,
    "avg_delay": 281.1556338028169014,
    "max": 5255,
    "min": 31,
    "delay_rate": 11.648892534864643,
    "latitude": 53.118253,
    "longitude": 23.144410,
    "name": "Wiejska/Pogodna",
    "prev_latitude": 53.116498,
    "prev_longitude": 23.140077,
    "prev_name": "Pogodna/Garaże"
  },
  {
    "stoppoint_loid": 348,
    "prev_sp_loid": 521,
    "total": 6243,
    "delayed": 725,
    "not_delayed": 5518,
    "avg_delay": 219.6551724137931034,
    "max": 5342,
    "min": 31,
    "delay_rate": 11.613006567355438,
    "latitude": 53.150838,
    "longitude": 23.122882,
    "name": "Berlinga/Gajowa",
    "prev_latitude": 53.153162,
    "prev_longitude": 23.121973,
    "prev_name": "Gajowa/Zagórna"
  },
  {
    "stoppoint_loid": 691,
    "prev_sp_loid": 690,
    "total": 2327,
    "delayed": 270,
    "not_delayed": 2057,
    "avg_delay": 231.0851851851851852,
    "max": 4701,
    "min": 32,
    "delay_rate": 11.602922217447357,
    "latitude": 53.125397,
    "longitude": 23.212307,
    "name": "Ciołkowskiego/Obrębowa",
    "prev_latitude": 53.122843,
    "prev_longitude": 23.204565,
    "prev_name": "Ciołkowskiego/Baranowicka"
  },
  {
    "stoppoint_loid": 721,
    "prev_sp_loid": 720,
    "total": 319,
    "delayed": 37,
    "not_delayed": 282,
    "avg_delay": 122.1621621621621622,
    "max": 319,
    "min": 37,
    "delay_rate": 11.598746081504702,
    "latitude": 52.945986,
    "longitude": 23.113654,
    "name": "Baranki/Pętla",
    "prev_latitude": 52.943957,
    "prev_longitude": 23.154150,
    "prev_name": "Bogdanki/Wieś"
  },
  {
    "stoppoint_loid": 402,
    "prev_sp_loid": 778,
    "total": 2234,
    "delayed": 259,
    "not_delayed": 1975,
    "avg_delay": 251.4362934362934363,
    "max": 5212,
    "min": 32,
    "delay_rate": 11.593554162936437,
    "latitude": 53.134133,
    "longitude": 23.207570,
    "name": "Włościańska/Pieczurki",
    "prev_latitude": 53.134077,
    "prev_longitude": 23.211425,
    "prev_name": "Włościańska/Sklep"
  },
  {
    "stoppoint_loid": 154,
    "prev_sp_loid": 774,
    "total": 5801,
    "delayed": 672,
    "not_delayed": 5129,
    "avg_delay": 128.4568452380952381,
    "max": 3963,
    "min": 31,
    "delay_rate": 11.584209619031203,
    "latitude": 53.168258,
    "longitude": 23.209967,
    "name": "Raginisa/Gwiazdkowa",
    "prev_latitude": 53.168845,
    "prev_longitude": 23.213672,
    "prev_name": "Niemeńska II"
  },
  {
    "stoppoint_loid": 286,
    "prev_sp_loid": 285,
    "total": 15724,
    "delayed": 1820,
    "not_delayed": 13904,
    "avg_delay": 309.7357142857142857,
    "max": 5398,
    "min": 31,
    "delay_rate": 11.574662935639786,
    "latitude": 53.135198,
    "longitude": 23.136212,
    "name": "Dworzec PKP",
    "prev_latitude": 53.135798,
    "prev_longitude": 23.130158,
    "prev_name": "Zwycięstwa/W.S.E."
  },
  {
    "stoppoint_loid": 284,
    "prev_sp_loid": 523,
    "total": 7929,
    "delayed": 917,
    "not_delayed": 7012,
    "avg_delay": 344.0796074154852781,
    "max": 5388,
    "min": 31,
    "delay_rate": 11.565140623029386,
    "latitude": 53.137157,
    "longitude": 23.122328,
    "name": "Zwycięstwa/Hetmańska",
    "prev_latitude": 53.140257,
    "prev_longitude": 23.122983,
    "prev_name": "Wierzbowa/PZMOT"
  },
  {
    "stoppoint_loid": 818,
    "prev_sp_loid": 565,
    "total": 5892,
    "delayed": 680,
    "not_delayed": 5212,
    "avg_delay": 144.9250000000000000,
    "max": 5159,
    "min": 31,
    "delay_rate": 11.541072640868975,
    "latitude": 53.155505,
    "longitude": 23.194290,
    "name": "Raginisa/Trawiasta",
    "prev_latitude": 53.159899,
    "prev_longitude": 23.198430,
    "prev_name": "Raginisa / Kolbego"
  },
  {
    "stoppoint_loid": 568,
    "prev_sp_loid": 911,
    "total": 5691,
    "delayed": 656,
    "not_delayed": 5035,
    "avg_delay": 171.6356707317073171,
    "max": 5272,
    "min": 31,
    "delay_rate": 11.526972412581268,
    "latitude": 53.159162,
    "longitude": 23.185998,
    "name": "Wysockiego - Cmentarz Miejski",
    "prev_latitude": 53.162712,
    "prev_longitude": 23.186063,
    "prev_name": "Wysockiego - Outlet Białystok"
  },
  {
    "stoppoint_loid": 106,
    "prev_sp_loid": 105,
    "total": 41741,
    "delayed": 4810,
    "not_delayed": 36931,
    "avg_delay": 286.6170478170478170,
    "max": 5387,
    "min": 31,
    "delay_rate": 11.523442179152392,
    "latitude": 53.132811,
    "longitude": 23.168512,
    "name": "Piłsudskiego/Pałacowa",
    "prev_latitude": 53.131453,
    "prev_longitude": 23.169838,
    "prev_name": "Branickiego / Urząd Miejski"
  },
  {
    "stoppoint_loid": 444,
    "prev_sp_loid": 13,
    "total": 17474,
    "delayed": 2010,
    "not_delayed": 15464,
    "avg_delay": 283.0308457711442786,
    "max": 5263,
    "min": 31,
    "delay_rate": 11.502804166189767,
    "latitude": 53.122705,
    "longitude": 23.121807,
    "name": "Składowa/Octowa",
    "prev_latitude": 53.124103,
    "prev_longitude": 23.116315,
    "prev_name": "Gen.E.Fieldorfa \"Nila\""
  },
  {
    "stoppoint_loid": 259,
    "prev_sp_loid": 258,
    "total": 3073,
    "delayed": 353,
    "not_delayed": 2720,
    "avg_delay": 243.1926345609065156,
    "max": 5303,
    "min": 31,
    "delay_rate": 11.487146111291898,
    "latitude": 53.140485,
    "longitude": 23.181572,
    "name": "Towarowa/Kraszewskiego",
    "prev_latitude": 53.139080,
    "prev_longitude": 23.185647,
    "prev_name": "Towarowa/Daleka"
  },
  {
    "stoppoint_loid": 368,
    "prev_sp_loid": 517,
    "total": 2073,
    "delayed": 238,
    "not_delayed": 1835,
    "avg_delay": 289.6806722689075630,
    "max": 5194,
    "min": 31,
    "delay_rate": 11.480945489628558,
    "latitude": 53.143127,
    "longitude": 23.133978,
    "name": "Antoniukowska/Wierzbowa",
    "prev_latitude": 53.141925,
    "prev_longitude": 23.128954,
    "prev_name": "Wierzbowa / Ordonówny"
  },
  {
    "stoppoint_loid": 463,
    "prev_sp_loid": 462,
    "total": 4374,
    "delayed": 501,
    "not_delayed": 3873,
    "avg_delay": 109.3373253493013972,
    "max": 1727,
    "min": 31,
    "delay_rate": 11.454046639231825,
    "latitude": 53.164665,
    "longitude": 23.110967,
    "name": "Zawady",
    "prev_latitude": 53.161142,
    "prev_longitude": 23.113688,
    "prev_name": "Zawady/Pętla"
  },
  {
    "stoppoint_loid": 11,
    "prev_sp_loid": 434,
    "total": 5267,
    "delayed": 603,
    "not_delayed": 4664,
    "avg_delay": 178.8242122719734660,
    "max": 5308,
    "min": 31,
    "delay_rate": 11.448642490981584,
    "latitude": 53.126347,
    "longitude": 23.100272,
    "name": "Popiełuszki/Kościół Św.Jadwigi",
    "prev_latitude": 53.127147,
    "prev_longitude": 23.094813,
    "prev_name": "Popiełuszki / Ubocze"
  },
  {
    "stoppoint_loid": 153,
    "prev_sp_loid": 152,
    "total": 1027,
    "delayed": 117,
    "not_delayed": 910,
    "avg_delay": 166.8888888888888889,
    "max": 4734,
    "min": 31,
    "delay_rate": 11.39240506329114,
    "latitude": 53.169813,
    "longitude": 23.213575,
    "name": "Raginisa/Ogródki Działkowe",
    "prev_latitude": 53.178248,
    "prev_longitude": 23.233149,
    "prev_name": "Nowodworce/Leszczynowa"
  },
  {
    "stoppoint_loid": 104,
    "prev_sp_loid": 103,
    "total": 31163,
    "delayed": 3547,
    "not_delayed": 27616,
    "avg_delay": 258.1573160417254017,
    "max": 5353,
    "min": 31,
    "delay_rate": 11.382087732246575,
    "latitude": 53.128070,
    "longitude": 23.175038,
    "name": "Branickiego / Automobilklub",
    "prev_latitude": 53.125960,
    "prev_longitude": 23.181325,
    "prev_name": "Branickiego / Piastowska"
  },
  {
    "stoppoint_loid": 626,
    "prev_sp_loid": 794,
    "total": 5098,
    "delayed": 580,
    "not_delayed": 4518,
    "avg_delay": 218.6862068965517241,
    "max": 4985,
    "min": 31,
    "delay_rate": 11.377010592389173,
    "latitude": 53.150545,
    "longitude": 23.089708,
    "name": "Kołłątaja/Mackiewicza",
    "prev_latitude": 53.153772,
    "prev_longitude": 23.088013,
    "prev_name": "Kołłątaja"
  },
  {
    "stoppoint_loid": 30,
    "prev_sp_loid": 824,
    "total": 11175,
    "delayed": 1271,
    "not_delayed": 9904,
    "avg_delay": 226.9189614476789929,
    "max": 5058,
    "min": 31,
    "delay_rate": 11.373601789709173,
    "latitude": 53.158135,
    "longitude": 23.152520,
    "name": "Andersa/Tysiąclecia P.P.",
    "prev_latitude": 53.159292,
    "prev_longitude": 23.142392,
    "prev_name": "Maczka/Świętokrzyska"
  },
  {
    "stoppoint_loid": 801,
    "prev_sp_loid": 800,
    "total": 7962,
    "delayed": 904,
    "not_delayed": 7058,
    "avg_delay": 288.2223451327433628,
    "max": 5371,
    "min": 31,
    "delay_rate": 11.353931173072091,
    "latitude": 53.141298,
    "longitude": 23.099857,
    "name": "al.Jana Pawła II/Pomnik",
    "prev_latitude": 53.140168,
    "prev_longitude": 23.106697,
    "prev_name": "al.Jana Pawła II/Kościół"
  },
  {
    "stoppoint_loid": 154,
    "prev_sp_loid": 153,
    "total": 1022,
    "delayed": 116,
    "not_delayed": 906,
    "avg_delay": 170.8879310344827586,
    "max": 4674,
    "min": 31,
    "delay_rate": 11.350293542074363,
    "latitude": 53.168258,
    "longitude": 23.209967,
    "name": "Raginisa/Gwiazdkowa",
    "prev_latitude": 53.169813,
    "prev_longitude": 23.213575,
    "prev_name": "Raginisa/Ogródki Działkowe"
  },
  {
    "stoppoint_loid": 690,
    "prev_sp_loid": 67,
    "total": 2318,
    "delayed": 263,
    "not_delayed": 2055,
    "avg_delay": 227.6996197718631179,
    "max": 4761,
    "min": 31,
    "delay_rate": 11.345987920621226,
    "latitude": 53.122843,
    "longitude": 23.204565,
    "name": "Ciołkowskiego/Baranowicka",
    "prev_latitude": 53.121335,
    "prev_longitude": 23.192822,
    "prev_name": "Branickiego/Nowowarszawska"
  },
  {
    "stoppoint_loid": 40,
    "prev_sp_loid": 191,
    "total": 4074,
    "delayed": 462,
    "not_delayed": 3612,
    "avg_delay": 241.6796536796536797,
    "max": 5011,
    "min": 31,
    "delay_rate": 11.34020618556701,
    "latitude": 53.145580,
    "longitude": 23.155527,
    "name": "Radzymińska / Sanktuarium",
    "prev_latitude": 53.144155,
    "prev_longitude": 23.149852,
    "prev_name": "Radzymińska/Szkoła"
  },
  {
    "stoppoint_loid": 240,
    "prev_sp_loid": 239,
    "total": 14855,
    "delayed": 1684,
    "not_delayed": 13171,
    "avg_delay": 210.3954869358669834,
    "max": 5327,
    "min": 31,
    "delay_rate": 11.336250420733759,
    "latitude": 53.134870,
    "longitude": 23.195380,
    "name": "Piastowska/Os. Piasta",
    "prev_latitude": 53.137145,
    "prev_longitude": 23.190772,
    "prev_name": "Towarowa/Parking"
  },
  {
    "stoppoint_loid": 174,
    "prev_sp_loid": 288,
    "total": 43318,
    "delayed": 4901,
    "not_delayed": 38417,
    "avg_delay": 293.7745358090185676,
    "max": 5368,
    "min": 31,
    "delay_rate": 11.314003416593565,
    "latitude": 53.136048,
    "longitude": 23.153860,
    "name": "Piłsudskiego/Częstochowska",
    "prev_latitude": 53.135653,
    "prev_longitude": 23.146942,
    "prev_name": "Piłsudskiego/Pl.Niepodległości"
  },
  {
    "stoppoint_loid": 523,
    "prev_sp_loid": 522,
    "total": 10167,
    "delayed": 1149,
    "not_delayed": 9018,
    "avg_delay": 280.8485639686684073,
    "max": 4634,
    "min": 31,
    "delay_rate": 11.30126881085866,
    "latitude": 53.140257,
    "longitude": 23.122983,
    "name": "Wierzbowa/PZMOT",
    "prev_latitude": 53.143375,
    "prev_longitude": 23.131261,
    "prev_name": "Wierzbowa/Antoniukowska"
  },
  {
    "stoppoint_loid": 86,
    "prev_sp_loid": 85,
    "total": 1820,
    "delayed": 205,
    "not_delayed": 1615,
    "avg_delay": 142.9560975609756098,
    "max": 885,
    "min": 31,
    "delay_rate": 11.263736263736265,
    "latitude": 53.082877,
    "longitude": 23.256595,
    "name": "Kuriany PKS",
    "prev_latitude": 53.078120,
    "prev_longitude": 23.261368,
    "prev_name": "Kuriany/Pętla"
  },
  {
    "stoppoint_loid": 515,
    "prev_sp_loid": 283,
    "total": 2072,
    "delayed": 233,
    "not_delayed": 1839,
    "avg_delay": 277.9570815450643777,
    "max": 5374,
    "min": 35,
    "delay_rate": 11.245173745173744,
    "latitude": 53.138491,
    "longitude": 23.121491,
    "name": "Wierzbowa / Rondo Reagana",
    "prev_latitude": 53.134260,
    "prev_longitude": 23.120227,
    "prev_name": "Hetmańska/Promienna"
  },
  {
    "stoppoint_loid": 830,
    "prev_sp_loid": 829,
    "total": 2665,
    "delayed": 299,
    "not_delayed": 2366,
    "avg_delay": 226.6722408026755853,
    "max": 2974,
    "min": 32,
    "delay_rate": 11.219512195121952,
    "latitude": 53.150493,
    "longitude": 23.050812,
    "name": "Porosły",
    "prev_latitude": 53.149382,
    "prev_longitude": 23.055095,
    "prev_name": "Porosły/Stacja Paliw"
  },
  {
    "stoppoint_loid": 479,
    "prev_sp_loid": 327,
    "total": 2231,
    "delayed": 250,
    "not_delayed": 1981,
    "avg_delay": 254.1880000000000000,
    "max": 4289,
    "min": 32,
    "delay_rate": 11.20573733751681,
    "latitude": 53.121693,
    "longitude": 23.145387,
    "name": "Kopernika / Kaczorowskiego",
    "prev_latitude": 53.118253,
    "prev_longitude": 23.144410,
    "prev_name": "Wiejska/Pogodna"
  },
  {
    "stoppoint_loid": 579,
    "prev_sp_loid": 220,
    "total": 652,
    "delayed": 73,
    "not_delayed": 579,
    "avg_delay": 158.1917808219178082,
    "max": 3190,
    "min": 31,
    "delay_rate": 11.196319018404909,
    "latitude": 52.999222,
    "longitude": 23.151463,
    "name": "Wólka",
    "prev_latitude": 53.019047,
    "prev_longitude": 23.141990,
    "prev_name": "Juchnowiec Kościelny"
  },
  {
    "stoppoint_loid": 1102,
    "prev_sp_loid": 110,
    "total": 7102,
    "delayed": 794,
    "not_delayed": 6308,
    "avg_delay": 237.4622166246851385,
    "max": 5276,
    "min": 31,
    "delay_rate": 11.179949310053507,
    "latitude": 53.131872,
    "longitude": 23.166135,
    "name": "Plac Jana Pawła II/Pałac Branickich",
    "prev_latitude": 53.128918,
    "prev_longitude": 23.155380,
    "prev_name": "Legionowa/Szkoła"
  },
  {
    "stoppoint_loid": 428,
    "prev_sp_loid": 427,
    "total": 10451,
    "delayed": 1168,
    "not_delayed": 9283,
    "avg_delay": 175.0539383561643836,
    "max": 5380,
    "min": 31,
    "delay_rate": 11.17596402258157,
    "latitude": 53.112013,
    "longitude": 23.080042,
    "name": "Niewodnicka/Spokojna",
    "prev_latitude": 53.112794,
    "prev_longitude": 23.085756,
    "prev_name": "Klepacka/Pętla"
  },
  {
    "stoppoint_loid": 242,
    "prev_sp_loid": 241,
    "total": 16615,
    "delayed": 1855,
    "not_delayed": 14760,
    "avg_delay": 301.0312668463611860,
    "max": 5323,
    "min": 31,
    "delay_rate": 11.164610291904905,
    "latitude": 53.128878,
    "longitude": 23.187967,
    "name": "Piastowska/Chrobrego",
    "prev_latitude": 53.131972,
    "prev_longitude": 23.192502,
    "prev_name": "Piastowska/Mieszka I"
  },
  {
    "stoppoint_loid": 183,
    "prev_sp_loid": 182,
    "total": 2906,
    "delayed": 324,
    "not_delayed": 2582,
    "avg_delay": 177.1141975308641975,
    "max": 4651,
    "min": 32,
    "delay_rate": 11.149346180316586,
    "latitude": 53.101543,
    "longitude": 23.210747,
    "name": "Dojlidy Górne/Zalesie",
    "prev_latitude": 53.096052,
    "prev_longitude": 23.210057,
    "prev_name": "Dojlidy Górne/Pętla"
  },
  {
    "stoppoint_loid": 497,
    "prev_sp_loid": 496,
    "total": 7364,
    "delayed": 821,
    "not_delayed": 6543,
    "avg_delay": 425.1534713763702801,
    "max": 5393,
    "min": 31,
    "delay_rate": 11.14883215643672,
    "latitude": 53.118532,
    "longitude": 23.166160,
    "name": "Akcent ZOO",
    "prev_latitude": 53.119915,
    "prev_longitude": 23.172968,
    "prev_name": "Św.Pio / Podleśna"
  },
  {
    "stoppoint_loid": 407,
    "prev_sp_loid": 406,
    "total": 11010,
    "delayed": 1227,
    "not_delayed": 9783,
    "avg_delay": 247.2819885900570497,
    "max": 5399,
    "min": 31,
    "delay_rate": 11.14441416893733,
    "latitude": 53.134757,
    "longitude": 23.180963,
    "name": "Piasta/Skorupska",
    "prev_latitude": 53.134913,
    "prev_longitude": 23.187343,
    "prev_name": "Mieszka I/Szkoła"
  },
  {
    "stoppoint_loid": 831,
    "prev_sp_loid": 830,
    "total": 2666,
    "delayed": 297,
    "not_delayed": 2369,
    "avg_delay": 226.4006734006734007,
    "max": 2914,
    "min": 32,
    "delay_rate": 11.140285071267817,
    "latitude": 53.151608,
    "longitude": 23.043285,
    "name": "Łyski",
    "prev_latitude": 53.150493,
    "prev_longitude": 23.050812,
    "prev_name": "Porosły"
  },
  {
    "stoppoint_loid": 774,
    "prev_sp_loid": 773,
    "total": 5775,
    "delayed": 643,
    "not_delayed": 5132,
    "avg_delay": 122.4618973561430793,
    "max": 3963,
    "min": 31,
    "delay_rate": 11.134199134199134,
    "latitude": 53.168845,
    "longitude": 23.213672,
    "name": "Niemeńska II",
    "prev_latitude": 53.167542,
    "prev_longitude": 23.221190,
    "prev_name": "Niemeńska"
  },
  {
    "stoppoint_loid": 829,
    "prev_sp_loid": 803,
    "total": 2659,
    "delayed": 296,
    "not_delayed": 2363,
    "avg_delay": 237.5270270270270270,
    "max": 2667,
    "min": 31,
    "delay_rate": 11.132004512974802,
    "latitude": 53.149382,
    "longitude": 23.055095,
    "name": "Porosły/Stacja Paliw",
    "prev_latitude": 53.144378,
    "prev_longitude": 23.083097,
    "prev_name": "al.Jana Pawła II/Makro  "
  },
  {
    "stoppoint_loid": 475,
    "prev_sp_loid": 474,
    "total": 15523,
    "delayed": 1725,
    "not_delayed": 13798,
    "avg_delay": 367.2933333333333333,
    "max": 5392,
    "min": 31,
    "delay_rate": 11.112542678605939,
    "latitude": 53.122345,
    "longitude": 23.143220,
    "name": "Kopernika/Os. Bema",
    "prev_latitude": 53.124742,
    "prev_longitude": 23.138667,
    "prev_name": "Kopernika/Wop"
  },
  {
    "stoppoint_loid": 437,
    "prev_sp_loid": 1,
    "total": 36,
    "delayed": 4,
    "not_delayed": 32,
    "avg_delay": 110.7500000000000000,
    "max": 160,
    "min": 41,
    "delay_rate": 11.11111111111111,
    "latitude": 53.124995,
    "longitude": 23.116153,
    "name": "Hetmańska/Gen.Fieldorfa \"Nila\"",
    "prev_latitude": 53.116306,
    "prev_longitude": 23.127989,
    "prev_name": "KPK Zajezdnia"
  },
  {
    "stoppoint_loid": 10,
    "prev_sp_loid": 9,
    "total": 5557,
    "delayed": 617,
    "not_delayed": 4940,
    "avg_delay": 261.9416531604538088,
    "max": 5305,
    "min": 31,
    "delay_rate": 11.103113190570452,
    "latitude": 53.128713,
    "longitude": 23.095775,
    "name": "Armii Krajowej/Bat. Chłopskich",
    "prev_latitude": 53.132223,
    "prev_longitude": 23.089377,
    "prev_name": "Armii Krajowej/Szkoła"
  },
  {
    "stoppoint_loid": 258,
    "prev_sp_loid": 257,
    "total": 3058,
    "delayed": 339,
    "not_delayed": 2719,
    "avg_delay": 246.9351032448377581,
    "max": 5363,
    "min": 31,
    "delay_rate": 11.085676913015043,
    "latitude": 53.139080,
    "longitude": 23.185647,
    "name": "Towarowa/Daleka",
    "prev_latitude": 53.136733,
    "prev_longitude": 23.192543,
    "prev_name": "Towarowa/Garaże"
  },
  {
    "stoppoint_loid": 800,
    "prev_sp_loid": 622,
    "total": 7916,
    "delayed": 877,
    "not_delayed": 7039,
    "avg_delay": 285.6145952109464082,
    "max": 5380,
    "min": 31,
    "delay_rate": 11.078827690752906,
    "latitude": 53.140168,
    "longitude": 23.106697,
    "name": "al.Jana Pawła II/Kościół",
    "prev_latitude": 53.138585,
    "prev_longitude": 23.114980,
    "prev_name": "al.Jana Pawła II/St.Paliw"
  },
  {
    "stoppoint_loid": 326,
    "prev_sp_loid": 325,
    "total": 16583,
    "delayed": 1837,
    "not_delayed": 14746,
    "avg_delay": 265.8176374523679913,
    "max": 5206,
    "min": 31,
    "delay_rate": 11.077609600192968,
    "latitude": 53.116498,
    "longitude": 23.140077,
    "name": "Pogodna/Garaże",
    "prev_latitude": 53.113853,
    "prev_longitude": 23.130802,
    "prev_name": "Pogodna/Żeromskiego"
  },
  {
    "stoppoint_loid": 191,
    "prev_sp_loid": 234,
    "total": 3061,
    "delayed": 339,
    "not_delayed": 2722,
    "avg_delay": 223.3598820058997050,
    "max": 4958,
    "min": 31,
    "delay_rate": 11.074812152891212,
    "latitude": 53.144155,
    "longitude": 23.149852,
    "name": "Radzymińska/Szkoła",
    "prev_latitude": 53.138160,
    "prev_longitude": 23.144040,
    "prev_name": "Poleska/Pogotowie"
  },
  {
    "stoppoint_loid": 360,
    "prev_sp_loid": 359,
    "total": 15181,
    "delayed": 1676,
    "not_delayed": 13505,
    "avg_delay": 267.7171837708830549,
    "max": 5388,
    "min": 31,
    "delay_rate": 11.040115934391673,
    "latitude": 53.143055,
    "longitude": 23.110432,
    "name": "Konst.3 Maja/Rzemieślnicza",
    "prev_latitude": 53.144017,
    "prev_longitude": 23.106763,
    "prev_name": "Swobodna/Wysoki Stoczek"
  },
  {
    "stoppoint_loid": 659,
    "prev_sp_loid": 673,
    "total": 535,
    "delayed": 59,
    "not_delayed": 476,
    "avg_delay": 233.6779661016949153,
    "max": 1500,
    "min": 44,
    "delay_rate": 11.02803738317757,
    "latitude": 53.004197,
    "longitude": 23.136818,
    "name": "Juchnowiec/Pętla",
    "prev_latitude": 52.999222,
    "prev_longitude": 23.151463,
    "prev_name": "Wólka"
  },
  {
    "stoppoint_loid": 12,
    "prev_sp_loid": 11,
    "total": 23289,
    "delayed": 2561,
    "not_delayed": 20728,
    "avg_delay": 215.8672393596251464,
    "max": 5336,
    "min": 31,
    "delay_rate": 10.996607840611446,
    "latitude": 53.125365,
    "longitude": 23.107592,
    "name": "Popiełuszki/Słonecznikowa",
    "prev_latitude": 53.126347,
    "prev_longitude": 23.100272,
    "prev_name": "Popiełuszki/Kościół Św.Jadwigi"
  },
  {
    "stoppoint_loid": 285,
    "prev_sp_loid": 284,
    "total": 43633,
    "delayed": 4796,
    "not_delayed": 38837,
    "avg_delay": 283.3765638031693078,
    "max": 5399,
    "min": 31,
    "delay_rate": 10.991680608713589,
    "latitude": 53.135798,
    "longitude": 23.130158,
    "name": "Zwycięstwa/W.S.E.",
    "prev_latitude": 53.137157,
    "prev_longitude": 23.122328,
    "prev_name": "Zwycięstwa/Hetmańska"
  },
  {
    "stoppoint_loid": 884,
    "prev_sp_loid": 883,
    "total": 701,
    "delayed": 77,
    "not_delayed": 624,
    "avg_delay": 192.2727272727272727,
    "max": 386,
    "min": 32,
    "delay_rate": 10.984308131241084,
    "latitude": 53.178785,
    "longitude": 23.263113,
    "name": "Karakule/Klasztorna",
    "prev_latitude": 53.183752,
    "prev_longitude": 23.262495,
    "prev_name": "Ogrodniczki/Szkolna"
  },
  {
    "stoppoint_loid": 113,
    "prev_sp_loid": 112,
    "total": 34446,
    "delayed": 3780,
    "not_delayed": 30666,
    "avg_delay": 285.2402116402116402,
    "max": 5351,
    "min": 31,
    "delay_rate": 10.973697962027522,
    "latitude": 53.141237,
    "longitude": 23.174282,
    "name": "Sienkiewicza/Ryska",
    "prev_latitude": 53.138720,
    "prev_longitude": 23.170085,
    "prev_name": "Sienkiewicza/Komenda Wojewódzka Policji"
  },
  {
    "stoppoint_loid": 489,
    "prev_sp_loid": 105,
    "total": 3673,
    "delayed": 403,
    "not_delayed": 3270,
    "avg_delay": 284.8263027295285360,
    "max": 4952,
    "min": 31,
    "delay_rate": 10.971957527906344,
    "latitude": 53.132693,
    "longitude": 23.169845,
    "name": "Pałacowa/Hotel",
    "prev_latitude": 53.131453,
    "prev_longitude": 23.169838,
    "prev_name": "Branickiego / Urząd Miejski"
  },
  {
    "stoppoint_loid": 381,
    "prev_sp_loid": 380,
    "total": 5136,
    "delayed": 563,
    "not_delayed": 4573,
    "avg_delay": 379.4813499111900533,
    "max": 5390,
    "min": 31,
    "delay_rate": 10.961838006230531,
    "latitude": 53.127262,
    "longitude": 23.096628,
    "name": "Popiełuszki / Sikorskiego",
    "prev_latitude": 53.129043,
    "prev_longitude": 23.098113,
    "prev_name": "Sikorskiego / Bat. Chł."
  },
  {
    "stoppoint_loid": 75,
    "prev_sp_loid": 681,
    "total": 3566,
    "delayed": 390,
    "not_delayed": 3176,
    "avg_delay": 216.3128205128205128,
    "max": 4849,
    "min": 32,
    "delay_rate": 10.936623667975324,
    "latitude": 53.108145,
    "longitude": 23.211797,
    "name": "Ks.Suchowolca/Proroka Eliasza",
    "prev_latitude": 53.112868,
    "prev_longitude": 23.202843,
    "prev_name": "Ks.Suchowolca/Myśliwska"
  },
  {
    "stoppoint_loid": 413,
    "prev_sp_loid": 412,
    "total": 12728,
    "delayed": 1392,
    "not_delayed": 11336,
    "avg_delay": 294.6041666666666667,
    "max": 5378,
    "min": 31,
    "delay_rate": 10.936517913262099,
    "latitude": 53.109645,
    "longitude": 23.137110,
    "name": "Pułaskiego/Szkoła",
    "prev_latitude": 53.109597,
    "prev_longitude": 23.145672,
    "prev_name": "Pułaskiego/Kawaleryjska"
  },
  {
    "stoppoint_loid": 363,
    "prev_sp_loid": 521,
    "total": 10159,
    "delayed": 1111,
    "not_delayed": 9048,
    "avg_delay": 245.8406840684068407,
    "max": 5064,
    "min": 31,
    "delay_rate": 10.93611575942514,
    "latitude": 53.152123,
    "longitude": 23.125048,
    "name": "Berlinga/Brzozowa",
    "prev_latitude": 53.153162,
    "prev_longitude": 23.121973,
    "prev_name": "Gajowa/Zagórna"
  },
  {
    "stoppoint_loid": 271,
    "prev_sp_loid": 270,
    "total": 33386,
    "delayed": 3651,
    "not_delayed": 29735,
    "avg_delay": 295.3473021090112298,
    "max": 5374,
    "min": 31,
    "delay_rate": 10.935721559935303,
    "latitude": 53.132045,
    "longitude": 23.119057,
    "name": "Hetmańska/Promienna",
    "prev_latitude": 53.136212,
    "prev_longitude": 23.120735,
    "prev_name": "Hetmańska/Gruntowa"
  },
  {
    "stoppoint_loid": 1304,
    "prev_sp_loid": 1303,
    "total": 942,
    "delayed": 103,
    "not_delayed": 839,
    "avg_delay": 89.3786407766990291,
    "max": 262,
    "min": 31,
    "delay_rate": 10.934182590233545,
    "latitude": 53.068403,
    "longitude": 23.085716,
    "name": "Ignatki Zakłady",
    "prev_latitude": 53.065732,
    "prev_longitude": 23.093113,
    "prev_name": "Ignatki/Przemysłowa"
  },
  {
    "stoppoint_loid": 46,
    "prev_sp_loid": 45,
    "total": 4947,
    "delayed": 540,
    "not_delayed": 4407,
    "avg_delay": 284.5611111111111111,
    "max": 5040,
    "min": 31,
    "delay_rate": 10.91570648878108,
    "latitude": 53.131448,
    "longitude": 23.150005,
    "name": "Kalinowskiego/OiFP",
    "prev_latitude": 53.133190,
    "prev_longitude": 23.155845,
    "prev_name": "Malmeda/Lipowa"
  },
  {
    "stoppoint_loid": 87,
    "prev_sp_loid": 86,
    "total": 1810,
    "delayed": 197,
    "not_delayed": 1613,
    "avg_delay": 118.7055837563451777,
    "max": 796,
    "min": 31,
    "delay_rate": 10.883977900552486,
    "latitude": 53.091340,
    "longitude": 23.242702,
    "name": "Zabłudowska/ Gminna",
    "prev_latitude": 53.082877,
    "prev_longitude": 23.256595,
    "prev_name": "Kuriany PKS"
  },
  {
    "stoppoint_loid": 804,
    "prev_sp_loid": 803,
    "total": 5256,
    "delayed": 572,
    "not_delayed": 4684,
    "avg_delay": 318.1206293706293706,
    "max": 5354,
    "min": 31,
    "delay_rate": 10.882800608828006,
    "latitude": 53.144045,
    "longitude": 23.074033,
    "name": "Elewatorska Fadom",
    "prev_latitude": 53.144378,
    "prev_longitude": 23.083097,
    "prev_name": "al.Jana Pawła II/Makro  "
  },
  {
    "stoppoint_loid": 167,
    "prev_sp_loid": 1103,
    "total": 7011,
    "delayed": 762,
    "not_delayed": 6249,
    "avg_delay": 286.6417322834645669,
    "max": 5106,
    "min": 31,
    "delay_rate": 10.868635002139495,
    "latitude": 53.129075,
    "longitude": 23.155160,
    "name": "Legionowa/Piękna",
    "prev_latitude": 53.131953,
    "prev_longitude": 23.165242,
    "prev_name": "Plac Jana Pawła II/Katedra"
  },
  {
    "stoppoint_loid": 111,
    "prev_sp_loid": 110,
    "total": 19523,
    "delayed": 2121,
    "not_delayed": 17402,
    "avg_delay": 336.9943422913719943,
    "max": 5334,
    "min": 31,
    "delay_rate": 10.864108999641449,
    "latitude": 53.131820,
    "longitude": 23.160740,
    "name": "Rynek Kościuszki",
    "prev_latitude": 53.128918,
    "prev_longitude": 23.155380,
    "prev_name": "Legionowa/Szkoła"
  },
  {
    "stoppoint_loid": 161,
    "prev_sp_loid": 866,
    "total": 3047,
    "delayed": 331,
    "not_delayed": 2716,
    "avg_delay": 203.8066465256797583,
    "max": 5378,
    "min": 37,
    "delay_rate": 10.863144076140467,
    "latitude": 53.144288,
    "longitude": 23.200600,
    "name": "42. Pułku Piechoty / Chabrowa",
    "prev_latitude": 53.142873,
    "prev_longitude": 23.211348,
    "prev_name": "42. Pułku Piechoty/Brzechwy"
  },
  {
    "stoppoint_loid": 315,
    "prev_sp_loid": 696,
    "total": 2313,
    "delayed": 251,
    "not_delayed": 2062,
    "avg_delay": 234.9043824701195219,
    "max": 1252,
    "min": 31,
    "delay_rate": 10.851707738867272,
    "latitude": 53.135823,
    "longitude": 23.257470,
    "name": "Grabówka/Kościół",
    "prev_latitude": 53.134667,
    "prev_longitude": 23.239295,
    "prev_name": "Kol. Grabówka/Klubowa"
  },
  {
    "stoppoint_loid": 2,
    "prev_sp_loid": 436,
    "total": 4912,
    "delayed": 533,
    "not_delayed": 4379,
    "avg_delay": 239.1275797373358349,
    "max": 4952,
    "min": 31,
    "delay_rate": 10.85097719869707,
    "latitude": 53.124832,
    "longitude": 23.114172,
    "name": "Popiełuszki/Hetmańska",
    "prev_latitude": 53.122452,
    "prev_longitude": 23.122487,
    "prev_name": "Składowa/Tunel"
  },
  {
    "stoppoint_loid": 859,
    "prev_sp_loid": 599,
    "total": 4525,
    "delayed": 491,
    "not_delayed": 4034,
    "avg_delay": 339.9185336048879837,
    "max": 5218,
    "min": 31,
    "delay_rate": 10.850828729281767,
    "latitude": 53.124837,
    "longitude": 23.155312,
    "name": "Waszyngtona/Szpital DSK",
    "prev_latitude": 53.127907,
    "prev_longitude": 23.159178,
    "prev_name": "Książnica Podlaska"
  },
  {
    "stoppoint_loid": 688,
    "prev_sp_loid": 242,
    "total": 4682,
    "delayed": 508,
    "not_delayed": 4174,
    "avg_delay": 249.7283464566929134,
    "max": 4892,
    "min": 31,
    "delay_rate": 10.850064075181546,
    "latitude": 53.127159,
    "longitude": 23.182342,
    "name": "Warszawska/Piastowska",
    "prev_latitude": 53.128878,
    "prev_longitude": 23.187967,
    "prev_name": "Piastowska/Chrobrego"
  },
  {
    "stoppoint_loid": 845,
    "prev_sp_loid": 844,
    "total": 2636,
    "delayed": 286,
    "not_delayed": 2350,
    "avg_delay": 125.5174825174825175,
    "max": 425,
    "min": 32,
    "delay_rate": 10.849772382397573,
    "latitude": 53.152407,
    "longitude": 23.004198,
    "name": "Firma NEXMAR",
    "prev_latitude": 53.145432,
    "prev_longitude": 22.991237,
    "prev_name": "Choroszcz/Szkoła"
  },
  {
    "stoppoint_loid": 487,
    "prev_sp_loid": 486,
    "total": 25961,
    "delayed": 2816,
    "not_delayed": 23145,
    "avg_delay": 266.1963778409090909,
    "max": 5295,
    "min": 31,
    "delay_rate": 10.847039790454913,
    "latitude": 53.125297,
    "longitude": 23.171605,
    "name": "Mickiewicza/Orzeszkowej",
    "prev_latitude": 53.121003,
    "prev_longitude": 23.174065,
    "prev_name": "Mickiewicza/Miłosza"
  },
  {
    "stoppoint_loid": 564,
    "prev_sp_loid": 563,
    "total": 3624,
    "delayed": 393,
    "not_delayed": 3231,
    "avg_delay": 156.4707379134860051,
    "max": 3945,
    "min": 31,
    "delay_rate": 10.844370860927151,
    "latitude": 53.167258,
    "longitude": 23.188307,
    "name": "Krzywoustego / Wysockiego",
    "prev_latitude": 53.172195,
    "prev_longitude": 23.186598,
    "prev_name": "Wysockiego - Silikaty"
  },
  {
    "stoppoint_loid": 565,
    "prev_sp_loid": 564,
    "total": 3610,
    "delayed": 391,
    "not_delayed": 3219,
    "avg_delay": 173.8465473145780051,
    "max": 3999,
    "min": 32,
    "delay_rate": 10.831024930747922,
    "latitude": 53.159899,
    "longitude": 23.198430,
    "name": "Raginisa / Kolbego",
    "prev_latitude": 53.167258,
    "prev_longitude": 23.188307,
    "prev_name": "Krzywoustego / Wysockiego"
  },
  {
    "stoppoint_loid": 615,
    "prev_sp_loid": 614,
    "total": 2156,
    "delayed": 233,
    "not_delayed": 1923,
    "avg_delay": 165.7038626609442060,
    "max": 4302,
    "min": 31,
    "delay_rate": 10.807050092764378,
    "latitude": 53.106592,
    "longitude": 23.131332,
    "name": "Sławińskiego/Wspólna",
    "prev_latitude": 53.103815,
    "prev_longitude": 23.135392,
    "prev_name": "Sławińskiego/Kawaleryjska"
  },
  {
    "stoppoint_loid": 61,
    "prev_sp_loid": 174,
    "total": 22825,
    "delayed": 2466,
    "not_delayed": 20359,
    "avg_delay": 305.8856447688564477,
    "max": 5278,
    "min": 31,
    "delay_rate": 10.803943044906902,
    "latitude": 53.135413,
    "longitude": 23.164630,
    "name": "Sienkiewicza/Rzeka Biała",
    "prev_latitude": 53.136048,
    "prev_longitude": 23.153860,
    "prev_name": "Piłsudskiego/Częstochowska"
  },
  {
    "stoppoint_loid": 535,
    "prev_sp_loid": 534,
    "total": 1380,
    "delayed": 149,
    "not_delayed": 1231,
    "avg_delay": 169.2013422818791946,
    "max": 5042,
    "min": 31,
    "delay_rate": 10.797101449275361,
    "latitude": 53.206197,
    "longitude": 23.171835,
    "name": "Sochonie/Os.Łan",
    "prev_latitude": 53.213215,
    "prev_longitude": 23.171985,
    "prev_name": "Sochonie/Pętla"
  },
  {
    "stoppoint_loid": 431,
    "prev_sp_loid": 430,
    "total": 12146,
    "delayed": 1311,
    "not_delayed": 10835,
    "avg_delay": 190.1853546910755149,
    "max": 5016,
    "min": 31,
    "delay_rate": 10.793676930676765,
    "latitude": 53.123415,
    "longitude": 23.081752,
    "name": "Nowosielska/Węgierska",
    "prev_latitude": 53.120772,
    "prev_longitude": 23.084147,
    "prev_name": "Meksykańska IPN"
  },
  {
    "stoppoint_loid": 504,
    "prev_sp_loid": 503,
    "total": 15540,
    "delayed": 1676,
    "not_delayed": 13864,
    "avg_delay": 255.2494033412887828,
    "max": 5242,
    "min": 31,
    "delay_rate": 10.785070785070786,
    "latitude": 53.123068,
    "longitude": 23.096605,
    "name": "Zielonogórska/Bank",
    "prev_latitude": 53.126305,
    "prev_longitude": 23.096950,
    "prev_name": "Galeria \"Zielone Wzgórze\""
  },
  {
    "stoppoint_loid": 694,
    "prev_sp_loid": 693,
    "total": 2301,
    "delayed": 248,
    "not_delayed": 2053,
    "avg_delay": 222.1854838709677419,
    "max": 1192,
    "min": 32,
    "delay_rate": 10.777922642329422,
    "latitude": 53.131227,
    "longitude": 23.229562,
    "name": "Ciołkowskiego/Polna",
    "prev_latitude": 53.129402,
    "prev_longitude": 23.224612,
    "prev_name": "Ciołkowskiego/Gen.N.Sulika"
  },
  {
    "stoppoint_loid": 1103,
    "prev_sp_loid": 105,
    "total": 6657,
    "delayed": 717,
    "not_delayed": 5940,
    "avg_delay": 289.7782426778242678,
    "max": 5148,
    "min": 31,
    "delay_rate": 10.770617395223073,
    "latitude": 53.131953,
    "longitude": 23.165242,
    "name": "Plac Jana Pawła II/Katedra",
    "prev_latitude": 53.131453,
    "prev_longitude": 23.169838,
    "prev_name": "Branickiego / Urząd Miejski"
  },
  {
    "stoppoint_loid": 583,
    "prev_sp_loid": 582,
    "total": 325,
    "delayed": 35,
    "not_delayed": 290,
    "avg_delay": 154.7428571428571429,
    "max": 840,
    "min": 31,
    "delay_rate": 10.76923076923077,
    "latitude": 52.968927,
    "longitude": 23.130120,
    "name": "Rostołty",
    "prev_latitude": 52.982635,
    "prev_longitude": 23.179342,
    "prev_name": "Klewinowo Nowe"
  },
  {
    "stoppoint_loid": 89,
    "prev_sp_loid": 551,
    "total": 3836,
    "delayed": 413,
    "not_delayed": 3423,
    "avg_delay": 149.2397094430992736,
    "max": 5165,
    "min": 31,
    "delay_rate": 10.766423357664232,
    "latitude": 53.097247,
    "longitude": 23.232297,
    "name": "Zabłudowska/Stoczni Gdańskiej",
    "prev_latitude": 53.096140,
    "prev_longitude": 23.231248,
    "prev_name": "Stoczni Gdańskiej/Zabłudowska"
  },
  {
    "stoppoint_loid": 398,
    "prev_sp_loid": 397,
    "total": 9799,
    "delayed": 1054,
    "not_delayed": 8745,
    "avg_delay": 190.8415559772296015,
    "max": 5299,
    "min": 31,
    "delay_rate": 10.756199612205327,
    "latitude": 53.148285,
    "longitude": 23.205640,
    "name": "Chełmońskiego/Leńskiego",
    "prev_latitude": 53.147917,
    "prev_longitude": 23.210937,
    "prev_name": "Chełmońskiego/Rubinowicza"
  },
  {
    "stoppoint_loid": 272,
    "prev_sp_loid": 437,
    "total": 4175,
    "delayed": 449,
    "not_delayed": 3726,
    "avg_delay": 303.9109131403118040,
    "max": 4567,
    "min": 31,
    "delay_rate": 10.754491017964071,
    "latitude": 53.131525,
    "longitude": 23.111438,
    "name": "Marczukowska/Piekarnia",
    "prev_latitude": 53.124995,
    "prev_longitude": 23.116153,
    "prev_name": "Hetmańska/Gen.Fieldorfa \"Nila\""
  },
  {
    "stoppoint_loid": 442,
    "prev_sp_loid": 441,
    "total": 34455,
    "delayed": 3705,
    "not_delayed": 30750,
    "avg_delay": 234.7165991902834008,
    "max": 5397,
    "min": 31,
    "delay_rate": 10.753156290814106,
    "latitude": 53.145457,
    "longitude": 23.128130,
    "name": "Antoniuk F. / Ogrodniczki",
    "prev_latitude": 53.147935,
    "prev_longitude": 23.118668,
    "prev_name": "Antoniuk F. / Konstytucji 3 Maja"
  },
  {
    "stoppoint_loid": 70,
    "prev_sp_loid": 69,
    "total": 5633,
    "delayed": 605,
    "not_delayed": 5028,
    "avg_delay": 204.0198347107438017,
    "max": 2874,
    "min": 35,
    "delay_rate": 10.740280489969821,
    "latitude": 53.120105,
    "longitude": 23.210215,
    "name": "Sowlańska/Piaskowa",
    "prev_latitude": 53.122423,
    "prev_longitude": 23.209038,
    "prev_name": "Baranowicka/Sowlańska"
  },
  {
    "stoppoint_loid": 846,
    "prev_sp_loid": 845,
    "total": 2636,
    "delayed": 283,
    "not_delayed": 2353,
    "avg_delay": 121.9858657243816254,
    "max": 425,
    "min": 31,
    "delay_rate": 10.735963581183611,
    "latitude": 53.157625,
    "longitude": 23.011475,
    "name": "Nowosiółki",
    "prev_latitude": 53.152407,
    "prev_longitude": 23.004198,
    "prev_name": "Firma NEXMAR"
  },
  {
    "stoppoint_loid": 692,
    "prev_sp_loid": 691,
    "total": 2311,
    "delayed": 248,
    "not_delayed": 2063,
    "avg_delay": 229.2862903225806452,
    "max": 4722,
    "min": 31,
    "delay_rate": 10.731285157940286,
    "latitude": 53.126748,
    "longitude": 23.216552,
    "name": "Ciołkowskiego/Plażowa",
    "prev_latitude": 53.125397,
    "prev_longitude": 23.212307,
    "prev_name": "Ciołkowskiego/Obrębowa"
  },
  {
    "stoppoint_loid": 832,
    "prev_sp_loid": 831,
    "total": 2656,
    "delayed": 285,
    "not_delayed": 2371,
    "avg_delay": 220.5964912280701754,
    "max": 2794,
    "min": 31,
    "delay_rate": 10.730421686746988,
    "latitude": 53.155618,
    "longitude": 23.026327,
    "name": "Łyski - Fabryka Okien",
    "prev_latitude": 53.151608,
    "prev_longitude": 23.043285,
    "prev_name": "Łyski"
  },
  {
    "stoppoint_loid": 885,
    "prev_sp_loid": 884,
    "total": 699,
    "delayed": 75,
    "not_delayed": 624,
    "avg_delay": 160.2533333333333333,
    "max": 337,
    "min": 37,
    "delay_rate": 10.72961373390558,
    "latitude": 53.174733,
    "longitude": 23.261007,
    "name": "Karakule/Wąska",
    "prev_latitude": 53.178785,
    "prev_longitude": 23.263113,
    "prev_name": "Karakule/Klasztorna"
  },
  {
    "stoppoint_loid": 277,
    "prev_sp_loid": 641,
    "total": 3766,
    "delayed": 404,
    "not_delayed": 3362,
    "avg_delay": 189.9480198019801980,
    "max": 4912,
    "min": 31,
    "delay_rate": 10.727562400424855,
    "latitude": 53.134942,
    "longitude": 23.101802,
    "name": "Sikorskiego",
    "prev_latitude": 53.139282,
    "prev_longitude": 23.106818,
    "prev_name": "Sikorskiego/Biawar"
  },
  {
    "stoppoint_loid": 522,
    "prev_sp_loid": 342,
    "total": 2230,
    "delayed": 239,
    "not_delayed": 1991,
    "avg_delay": 232.7154811715481172,
    "max": 3473,
    "min": 31,
    "delay_rate": 10.717488789237668,
    "latitude": 53.143375,
    "longitude": 23.131261,
    "name": "Wierzbowa/Antoniukowska",
    "prev_latitude": 53.142885,
    "prev_longitude": 23.134738,
    "prev_name": "Antoniukowska/Narewska"
  },
  {
    "stoppoint_loid": 373,
    "prev_sp_loid": 822,
    "total": 9888,
    "delayed": 1059,
    "not_delayed": 8829,
    "avg_delay": 164.7488196411709160,
    "max": 5255,
    "min": 31,
    "delay_rate": 10.709951456310678,
    "latitude": 53.124113,
    "longitude": 23.096653,
    "name": "Wrocławska/Zielonogórska",
    "prev_latitude": 53.122647,
    "prev_longitude": 23.092322,
    "prev_name": "Wrocławska/Storczykowa"
  },
  {
    "stoppoint_loid": 632,
    "prev_sp_loid": 631,
    "total": 934,
    "delayed": 100,
    "not_delayed": 834,
    "avg_delay": 158.8900000000000000,
    "max": 3076,
    "min": 31,
    "delay_rate": 10.706638115631693,
    "latitude": 53.109128,
    "longitude": 23.200025,
    "name": "Myśliwska",
    "prev_latitude": 53.111752,
    "prev_longitude": 23.201187,
    "prev_name": "Myśliwska / Niedźwiedzia"
  },
  {
    "stoppoint_loid": 528,
    "prev_sp_loid": 527,
    "total": 1887,
    "delayed": 202,
    "not_delayed": 1685,
    "avg_delay": 314.5148514851485149,
    "max": 3590,
    "min": 31,
    "delay_rate": 10.704822469528352,
    "latitude": 53.195515,
    "longitude": 23.155465,
    "name": "Jurowce/Wiadukt",
    "prev_latitude": 53.190025,
    "prev_longitude": 23.152132,
    "prev_name": "Rzeka Supraśl"
  },
  {
    "stoppoint_loid": 472,
    "prev_sp_loid": 471,
    "total": 3589,
    "delayed": 384,
    "not_delayed": 3205,
    "avg_delay": 184.0989583333333333,
    "max": 4903,
    "min": 31,
    "delay_rate": 10.6993591529674,
    "latitude": 53.117407,
    "longitude": 23.113840,
    "name": "Sejneńska",
    "prev_latitude": 53.117088,
    "prev_longitude": 23.109022,
    "prev_name": "Bażantarnia"
  },
  {
    "stoppoint_loid": 113,
    "prev_sp_loid": 236,
    "total": 3066,
    "delayed": 328,
    "not_delayed": 2738,
    "avg_delay": 220.0121951219512195,
    "max": 4478,
    "min": 32,
    "delay_rate": 10.697977821265493,
    "latitude": 53.141237,
    "longitude": 23.174282,
    "name": "Sienkiewicza/Ryska",
    "prev_latitude": 53.141282,
    "prev_longitude": 23.168740,
    "prev_name": "Jagienki/Ciepła"
  },
  {
    "stoppoint_loid": 2,
    "prev_sp_loid": 443,
    "total": 12178,
    "delayed": 1302,
    "not_delayed": 10876,
    "avg_delay": 256.6228878648233487,
    "max": 5388,
    "min": 31,
    "delay_rate": 10.691410740679915,
    "latitude": 53.124832,
    "longitude": 23.114172,
    "name": "Popiełuszki/Hetmańska",
    "prev_latitude": 53.128640,
    "prev_longitude": 23.117793,
    "prev_name": "Hetmańska/Marczukowska"
  },
  {
    "stoppoint_loid": 41,
    "prev_sp_loid": 40,
    "total": 17455,
    "delayed": 1862,
    "not_delayed": 15593,
    "avg_delay": 240.4334049409237379,
    "max": 4994,
    "min": 31,
    "delay_rate": 10.667430535663133,
    "latitude": 53.145085,
    "longitude": 23.157263,
    "name": "Tysiąclecia P.P./Plac Ks.M.Sopoćki",
    "prev_latitude": 53.145580,
    "prev_longitude": 23.155527,
    "prev_name": "Radzymińska / Sanktuarium"
  },
  {
    "stoppoint_loid": 628,
    "prev_sp_loid": 814,
    "total": 7850,
    "delayed": 837,
    "not_delayed": 7013,
    "avg_delay": 253.1541218637992832,
    "max": 5235,
    "min": 31,
    "delay_rate": 10.662420382165605,
    "latitude": 53.139395,
    "longitude": 23.108677,
    "name": "al.Jana Pawła II/Rzeka Biała",
    "prev_latitude": 53.140735,
    "prev_longitude": 23.101550,
    "prev_name": "al.Jana Pawła II/Biawar"
  },
  {
    "stoppoint_loid": 284,
    "prev_sp_loid": 629,
    "total": 15394,
    "delayed": 1639,
    "not_delayed": 13755,
    "avg_delay": 267.5625381330079317,
    "max": 5244,
    "min": 31,
    "delay_rate": 10.647005326750682,
    "latitude": 53.137157,
    "longitude": 23.122328,
    "name": "Zwycięstwa/Hetmańska",
    "prev_latitude": 53.137958,
    "prev_longitude": 23.117022,
    "prev_name": "al.Jana Pawła II/Centrum Handlowe"
  },
  {
    "stoppoint_loid": 13,
    "prev_sp_loid": 443,
    "total": 12533,
    "delayed": 1334,
    "not_delayed": 11199,
    "avg_delay": 289.7383808095952024,
    "max": 5205,
    "min": 31,
    "delay_rate": 10.643900103726162,
    "latitude": 53.124103,
    "longitude": 23.116315,
    "name": "Gen.E.Fieldorfa \"Nila\"",
    "prev_latitude": 53.128640,
    "prev_longitude": 23.117793,
    "prev_name": "Hetmańska/Marczukowska"
  },
  {
    "stoppoint_loid": 65,
    "prev_sp_loid": 64,
    "total": 19831,
    "delayed": 2107,
    "not_delayed": 17724,
    "avg_delay": 260.8718557190317988,
    "max": 5368,
    "min": 31,
    "delay_rate": 10.624779385810095,
    "latitude": 53.124477,
    "longitude": 23.183558,
    "name": "Branickiego/Miłosza",
    "prev_latitude": 53.127713,
    "prev_longitude": 23.175148,
    "prev_name": "Branickiego/Świętojańska"
  },
  {
    "stoppoint_loid": 22,
    "prev_sp_loid": 370,
    "total": 21989,
    "delayed": 2336,
    "not_delayed": 19653,
    "avg_delay": 298.8600171232876712,
    "max": 5387,
    "min": 31,
    "delay_rate": 10.623493564964301,
    "latitude": 53.133732,
    "longitude": 23.156895,
    "name": "Malmeda/Zamenhofa",
    "prev_latitude": 53.133954,
    "prev_longitude": 23.149067,
    "prev_name": "Lipowa/Św. Rocha"
  },
  {
    "stoppoint_loid": 164,
    "prev_sp_loid": 163,
    "total": 6354,
    "delayed": 675,
    "not_delayed": 5679,
    "avg_delay": 200.7600000000000000,
    "max": 5078,
    "min": 31,
    "delay_rate": 10.623229461756374,
    "latitude": 53.145478,
    "longitude": 23.180942,
    "name": "Wasilkowska / Andersa",
    "prev_latitude": 53.144083,
    "prev_longitude": 23.189198,
    "prev_name": "Sosabowskiego / Krańcowa"
  },
  {
    "stoppoint_loid": 240,
    "prev_sp_loid": 404,
    "total": 5407,
    "delayed": 574,
    "not_delayed": 4833,
    "avg_delay": 270.5662020905923345,
    "max": 5277,
    "min": 31,
    "delay_rate": 10.61586831884594,
    "latitude": 53.134870,
    "longitude": 23.195380,
    "name": "Piastowska/Os. Piasta",
    "prev_latitude": 53.134684,
    "prev_longitude": 23.198821,
    "prev_name": "Piasta/Andrukiewicza"
  },
  {
    "stoppoint_loid": 650,
    "prev_sp_loid": 649,
    "total": 1866,
    "delayed": 198,
    "not_delayed": 1668,
    "avg_delay": 420.6414141414141414,
    "max": 5306,
    "min": 50,
    "delay_rate": 10.610932475884244,
    "latitude": 53.060368,
    "longitude": 23.141120,
    "name": "Hryniewicze/Wysypisko",
    "prev_latitude": 53.067545,
    "prev_longitude": 23.136793,
    "prev_name": "Hryniewicze/MPRD"
  },
  {
    "stoppoint_loid": 62,
    "prev_sp_loid": 61,
    "total": 21154,
    "delayed": 2243,
    "not_delayed": 18911,
    "avg_delay": 257.5991975033437361,
    "max": 5278,
    "min": 31,
    "delay_rate": 10.603195613122814,
    "latitude": 53.133764,
    "longitude": 23.169323,
    "name": "Warszawska Bank",
    "prev_latitude": 53.135413,
    "prev_longitude": 23.164630,
    "prev_name": "Sienkiewicza/Rzeka Biała"
  }
]